{"AD": {"cities": [{"city": "Ordino", "lat": "42.55623", "long": "1.53319"}, {"city": "les Escaldes", "lat": "42.50729", "long": "1.53414"}, {"city": "la Massana", "lat": "42.54499", "long": "1.51483"}, {"city": "Encamp", "lat": "42.53474", "long": "1.58014"}, {"city": "Canillo", "lat": "42.5676", "long": "1.59756"}, {"city": "Andorra la Vella", "lat": "42.50779", "long": "1.52109"}]}, "AE": {"cities": [{"city": "Ras al-Khaimah", "lat": "25.78953", "long": "55.9432"}, {"city": "Muzayri`", "lat": "23.14355", "long": "53.7881"}, {"city": "Khawr Fakkan", "lat": "25.33132", "long": "56.34199"}, {"city": "Dubai", "lat": "25.0657", "long": "55.17128"}, {"city": "Dibba Al-Fujairah", "lat": "25.59246", "long": "56.26176"}, {"city": "Dibba Al-Hisn", "lat": "25.61955", "long": "56.27291"}, {"city": "Sharjah", "lat": "25.33737", "long": "55.41206"}, {"city": "Ar Ruways", "lat": "24.11028", "long": "52.73056"}, {"city": "Al Fujayrah", "lat": "25.11641", "long": "56.34141"}, {"city": "Al Ain", "lat": "24.19167", "long": "55.76056"}, {"city": "Ajman", "lat": "25.41111", "long": "55.43504"}, {"city": "Adh Dhayd", "lat": "25.28812", "long": "55.88157"}, {"city": "Abu Dhabi", "lat": "24.46667", "long": "54.36667"}, {"city": "Musaffah", "lat": "24.35893", "long": "54.48267"}]}, "AF": {"cities": [{"city": "Tukzar", "lat": "35.94831", "long": "66.42132"}, {"city": "Zindah Jan", "lat": "34.34264", "long": "61.74675"}, {"city": "Zarghun Shahr", "lat": "32.84734", "long": "68.44573"}, {"city": "Zarah Sharan", "lat": "33.14641", "long": "68.79213"}, {"city": "Zaranj", "lat": "30.95962", "long": "61.86037"}, {"city": "Yangi Qal'ah", "lat": "37.46572", "long": "69.61131"}, {"city": "Tir Pul", "lat": "34.59431", "long": "61.26895"}, {"city": "Tarinkot", "lat": "32.62998", "long": "65.87806"}, {"city": "Taloqan", "lat": "36.73605", "long": "69.53451"}, {"city": "Tagaw-Bay", "lat": "35.69941", "long": "66.06164"}, {"city": "Tagab", "lat": "34.85501", "long": "69.64917"}, {"city": "Shindand", "lat": "33.30294", "long": "62.1474"}, {"city": "Shibirghan", "lat": "36.66757", "long": "65.7529"}, {"city": "Shahrak", "lat": "34.10737", "long": "64.3052"}, {"city": "Sidqabad", "lat": "35.02298", "long": "69.35112"}, {"city": "Sar-e Pul", "lat": "36.21544", "long": "65.93249"}, {"city": "Sangin", "lat": "32.07275", "long": "64.8359"}, {"city": "Sang-e Charak", "lat": "35.84972", "long": "66.43694"}, {"city": "Aibak", "lat": "36.26468", "long": "68.01551"}, {"city": "Rudbar", "lat": "30.15", "long": "62.6"}, {"city": "Rustaq", "lat": "37.12604", "long": "69.83045"}, {"city": "Qarqin", "lat": "37.41853", "long": "66.04358"}, {"city": "Qarchi Gak", "lat": "37.03999", "long": "66.78891"}, {"city": "Qarawul", "lat": "37.21959", "long": "68.7802"}, {"city": "Qarah Bagh", "lat": "34.94023", "long": "61.77589"}, {"city": "Qala i Naw", "lat": "34.98735", "long": "63.12891"}, {"city": "Qal'ah-ye Shahr", "lat": "35.54729", "long": "65.5676"}, {"city": "Qalat", "lat": "32.10575", "long": "66.90833"}, {"city": "Parun", "lat": "35.42064", "long": "70.92261"}, {"city": "Pul-e Khumri", "lat": "35.94458", "long": "68.71512"}, {"city": "Pul-e 'Alam", "lat": "33.99529", "long": "69.02274"}, {"city": "Panjab", "lat": "34.38795", "long": "67.02327"}, {"city": "Paghman", "lat": "34.58787", "long": "68.95091"}, {"city": "Uruzgan", "lat": "32.92775", "long": "66.63253"}, {"city": "Nili", "lat": "33.72178", "long": "66.13023"}, {"city": "Nahrin", "lat": "36.0649", "long": "69.13343"}, {"city": "Mir Bachah Kot", "lat": "34.74999", "long": "69.11899"}, {"city": "Mirabad", "lat": "30.43624", "long": "61.8383"}, {"city": "Maymana", "lat": "35.92139", "long": "64.78361"}, {"city": "Mehtar Lam", "lat": "34.67139", "long": "70.20944"}, {"city": "Mazar-e Sharif", "lat": "36.70904", "long": "67.11087"}, {"city": "Lashkar Gah", "lat": "31.59382", "long": "64.37161"}, {"city": "Larkird", "lat": "35.48936", "long": "66.66409"}, {"city": "Kushk", "lat": "33.29565", "long": "61.95221"}, {"city": "Kunduz", "lat": "36.72895", "long": "68.857"}, {"city": "Khost", "lat": "33.33951", "long": "69.92041"}, {"city": "Khulm", "lat": "36.69736", "long": "67.69826"}, {"city": "Khash", "lat": "31.52919", "long": "62.79055"}, {"city": "Khandud", "lat": "36.95127", "long": "72.318"}, {"city": "Khanabad", "lat": "36.6825", "long": "69.11556"}, {"city": "Karukh", "lat": "34.48108", "long": "62.5863"}, {"city": "Kandahar", "lat": "31.61332", "long": "65.71013"}, {"city": "Kabul", "lat": "34.52813", "long": "69.17233"}, {"city": "Jurm", "lat": "36.86477", "long": "70.83421"}, {"city": "Jalalabad", "lat": "34.42647", "long": "70.45153"}, {"city": "Jabal os Saraj", "lat": "35.11833", "long": "69.23778"}, {"city": "Herat", "lat": "34.34817", "long": "62.19967"}, {"city": "Ghormach", "lat": "35.73062", "long": "63.78264"}, {"city": "Ghazni", "lat": "33.55391", "long": "68.42096"}, {"city": "Gereshk", "lat": "31.82089", "long": "64.57005"}, {"city": "Gardez", "lat": "33.59744", "long": "69.22592"}, {"city": "Fayzabad", "lat": "37.11664", "long": "70.58002"}, {"city": "Farkhar", "lat": "36.57288", "long": "69.85783"}, {"city": "Farah", "lat": "32.37451", "long": "62.11638"}, {"city": "Kafir Qala", "lat": "34.66667", "long": "61.06667"}, {"city": "Imam Sahib", "lat": "37.18897", "long": "68.93644"}, {"city": "Dasht-e Archi", "lat": "37.13333", "long": "69.16667"}, {"city": "Darzab", "lat": "35.97744", "long": "65.37828"}, {"city": "Markaz-e Hukumat-e Darweshan", "lat": "31.13231", "long": "64.1934"}, {"city": "Chiras", "lat": "35.41674", "long": "65.98234"}, {"city": "Charikar", "lat": "35.01361", "long": "69.17139"}, {"city": "Chahar Burj", "lat": "34.24475", "long": "62.19165"}, {"city": "Fayroz Koh", "lat": "34.51952", "long": "65.25093"}, {"city": "Basawul", "lat": "34.24749", "long": "70.87218"}, {"city": "Baraki Barak", "lat": "33.96744", "long": "68.9492"}, {"city": "Bamyan", "lat": "34.82156", "long": "67.82734"}, {"city": "Balkh", "lat": "36.75635", "long": "66.8972"}, {"city": "Baghlan", "lat": "36.13068", "long": "68.70829"}, {"city": "Hukumati Azrah", "lat": "34.17355", "long": "69.64573"}, {"city": "Art Khwajah", "lat": "37.08571", "long": "69.47958"}, {"city": "Asmar", "lat": "35.03333", "long": "71.35809"}, {"city": "Ashkasham", "lat": "36.68333", "long": "71.53333"}, {"city": "Asadabad", "lat": "34.87311", "long": "71.14697"}, {"city": "Andkhoy", "lat": "36.95293", "long": "65.12376"}, {"city": "Anar Darah", "lat": "32.7587", "long": "61.65397"}, {"city": "'Alaqahdari Dishu", "lat": "30.43206", "long": "63.29802"}, {"city": "Bazarak", "lat": "35.31292", "long": "69.51519"}, {"city": "Maydanshakhr", "lat": "34.39561", "long": "68.86618"}, {"city": "Markaz-e Woluswali-ye Achin", "lat": "34.12583", "long": "70.70778"}, {"city": "Sharan", "lat": "33.17568", "long": "68.73045"}]}, "AG": {"cities": [{"city": "Piggotts", "lat": "17.11667", "long": "-61.8"}, {"city": "Parham", "lat": "17.09682", "long": "-61.77046"}, {"city": "Falmouth", "lat": "17.02741", "long": "-61.78136"}, {"city": "Codrington", "lat": "17.63333", "long": "-61.83333"}, {"city": "Bolands", "lat": "17.06565", "long": "-61.87466"}]}, "AI": {"cities": [{"city": "The Valley", "lat": "18.21704", "long": "-63.05783"}, {"city": "The Quarter", "lat": "18.20799", "long": "-63.04178"}, {"city": "Farrington", "lat": "18.215", "long": "-63.02238"}, {"city": "Stoney Ground", "lat": "18.22026", "long": "-63.04607"}, {"city": "South Hill Village", "lat": "18.19201", "long": "-63.08779"}, {"city": "Sandy Ground Village", "lat": "18.20118", "long": "-63.08998"}, {"city": "North Side", "lat": "18.22919", "long": "-63.04401"}, {"city": "North Hill Village", "lat": "18.20542", "long": "-63.07847"}, {"city": "Island Harbour", "lat": "18.25601", "long": "-63.0102"}, {"city": "George Hill", "lat": "18.19939", "long": "-63.0665"}, {"city": "East End Village", "lat": "18.23333", "long": "-63"}, {"city": "Blowing Point Village", "lat": "18.17648", "long": "-63.09375"}, {"city": "Sandy Hill", "lat": "18.22104", "long": "-63.01329"}]}, "AL": {"cities": [{"city": "Tepelene", "lat": "40.29583", "long": "20.01917"}, {"city": "Polican", "lat": "40.61222", "long": "20.09806"}, {"city": "Pogradec", "lat": "40.9025", "long": "20.6525"}, {"city": "Peshkopi", "lat": "41.685", "long": "20.42889"}, {"city": "Permet", "lat": "40.23361", "long": "20.35167"}, {"city": "Kukes", "lat": "42.07694", "long": "20.42194"}, {"city": "Korce", "lat": "40.61861", "long": "20.78083"}, {"city": "Gramsh", "lat": "40.86972", "long": "20.18444"}, {"city": "Gjirokaster", "lat": "40.07583", "long": "20.13889"}, {"city": "Erseke", "lat": "40.33778", "long": "20.67889"}, {"city": "Elbasan", "lat": "41.1125", "long": "20.08222"}, {"city": "Corovode", "lat": "40.50417", "long": "20.22722"}, {"city": "Burrel", "lat": "41.61028", "long": "20.00889"}, {"city": "Bulqize", "lat": "41.49167", "long": "20.22194"}, {"city": "Bilisht", "lat": "40.6275", "long": "20.99"}, {"city": "Librazhd-Qender", "lat": "41.19694", "long": "20.33556"}, {"city": "Vlore", "lat": "40.4686", "long": "19.48318"}, {"city": "Tirana", "lat": "41.3275", "long": "19.81889"}, {"city": "Shkoder", "lat": "42.06828", "long": "19.51258"}, {"city": "Shijak", "lat": "41.34556", "long": "19.56722"}, {"city": "Selenice", "lat": "40.53056", "long": "19.63583"}, {"city": "Rrogozhine", "lat": "41.07639", "long": "19.66528"}, {"city": "Rreshen", "lat": "41.7675", "long": "19.87556"}, {"city": "Roskovec", "lat": "40.7375", "long": "19.70222"}, {"city": "Puke", "lat": "42.04444", "long": "19.89972"}, {"city": "Peqin", "lat": "41.04611", "long": "19.75111"}, {"city": "Patos Fshat", "lat": "40.64278", "long": "19.65083"}, {"city": "Patos", "lat": "40.68333", "long": "19.61944"}, {"city": "Mamurras", "lat": "41.5775", "long": "19.69222"}, {"city": "Lushnje", "lat": "40.94194", "long": "19.705"}, {"city": "Lezhe", "lat": "41.78361", "long": "19.64361"}, {"city": "Lac", "lat": "41.63556", "long": "19.71306"}, {"city": "Kucove", "lat": "40.80028", "long": "19.91667"}, {"city": "Kruje", "lat": "41.50917", "long": "19.79278"}, {"city": "Kavaje", "lat": "41.18556", "long": "19.55694"}, {"city": "Kamez", "lat": "41.38167", "long": "19.76028"}, {"city": "Fushe-Kruje", "lat": "41.47833", "long": "19.71778"}, {"city": "Fier-Cifci", "lat": "40.71667", "long": "19.56667"}, {"city": "Fier", "lat": "40.72389", "long": "19.55611"}, {"city": "Durres", "lat": "41.32355", "long": "19.45469"}, {"city": "Cerrik", "lat": "41.03167", "long": "19.97583"}, {"city": "Berat", "lat": "40.70583", "long": "19.95222"}, {"city": "Ballsh", "lat": "40.59889", "long": "19.73472"}]}, "AM": {"cities": [{"city": "Vedi", "lat": "39.91388", "long": "44.7251"}, {"city": "Vayk'", "lat": "39.6889", "long": "45.46668"}, {"city": "Kapan", "lat": "39.20755", "long": "46.40576"}, {"city": "Goris", "lat": "39.51111", "long": "46.34168"}, {"city": "Hats'avan", "lat": "39.46405", "long": "45.97047"}, {"city": "Artashat", "lat": "39.96144", "long": "44.54447"}, {"city": "Ararat", "lat": "39.83069", "long": "44.70569"}, {"city": "Yerevan", "lat": "40.18111", "long": "44.51361"}, {"city": "Vagharshapat", "lat": "40.16557", "long": "44.29462"}, {"city": "Yeghvard", "lat": "40.32507", "long": "44.48608"}, {"city": "Vardenis", "lat": "40.18329", "long": "45.73053"}, {"city": "Vardenik", "lat": "40.13348", "long": "45.44311"}, {"city": "Tashir", "lat": "41.12072", "long": "44.28462"}, {"city": "Step'anavan", "lat": "41.00995", "long": "44.38531"}, {"city": "Spitak", "lat": "40.83221", "long": "44.26731"}, {"city": "Sevan", "lat": "40.5473", "long": "44.94171"}, {"city": "Sarukhan", "lat": "40.29169", "long": "45.13068"}, {"city": "Sardarapat", "lat": "40.13206", "long": "44.00969"}, {"city": "Noyemberyan", "lat": "41.17244", "long": "44.99917"}, {"city": "Noratus", "lat": "40.37793", "long": "45.18048"}, {"city": "Nerk'in Getashen", "lat": "40.14172", "long": "45.27087"}, {"city": "Metsamor", "lat": "40.07233", "long": "44.29169"}, {"city": "Masis", "lat": "40.06542", "long": "44.41618"}, {"city": "Martuni", "lat": "40.13892", "long": "45.30548"}, {"city": "Vanadzor", "lat": "40.80456", "long": "44.4939"}, {"city": "Karanlukh", "lat": "40.10444", "long": "45.28972"}, {"city": "Gavarr", "lat": "40.35398", "long": "45.12386"}, {"city": "Ijevan", "lat": "40.87877", "long": "45.14851"}, {"city": "Hrazdan", "lat": "40.49748", "long": "44.7662"}, {"city": "Armavir", "lat": "40.15446", "long": "44.03815"}, {"city": "Gyumri", "lat": "40.7942", "long": "43.84528"}, {"city": "Garrni", "lat": "40.11931", "long": "44.73442"}, {"city": "Dilijan", "lat": "40.7417", "long": "44.8501"}, {"city": "Chambarak", "lat": "40.59655", "long": "45.35498"}, {"city": "Byureghavan", "lat": "40.31417", "long": "44.59333"}, {"city": "Berd", "lat": "40.88135", "long": "45.38901"}, {"city": "Ashtarak", "lat": "40.2991", "long": "44.36204"}, {"city": "Aparan", "lat": "40.59323", "long": "44.3589"}, {"city": "Alaverdi", "lat": "41.09766", "long": "44.67316"}, {"city": "Akhuryan", "lat": "40.78003", "long": "43.90027"}, {"city": "Abovyan", "lat": "40.27368", "long": "44.63348"}]}, "AO": {"cities": [{"city": "Lucapa", "lat": "-8.41915", "long": "20.74466"}, {"city": "Luau", "lat": "-10.70727", "long": "22.22466"}, {"city": "Leua", "lat": "-11.65", "long": "20.45"}, {"city": "Uige", "lat": "-7.60874", "long": "15.06131"}, {"city": "Soio", "lat": "-6.1349", "long": "12.36894"}, {"city": "N'zeto", "lat": "-7.23116", "long": "12.8666"}, {"city": "N'dalatando", "lat": "-9.29782", "long": "14.91162"}, {"city": "Mbanza Congo", "lat": "-6.26703", "long": "14.2401"}, {"city": "Malanje", "lat": "-9.54015", "long": "16.34096"}, {"city": "Luanda", "lat": "-8.83682", "long": "13.23432"}, {"city": "Caxito", "lat": "-8.57848", "long": "13.66425"}, {"city": "Camabatela", "lat": "-8.18812", "long": "15.37495"}, {"city": "Cabinda", "lat": "-5.55", "long": "12.2"}, {"city": "Uacu Cungo", "lat": "-11.35669", "long": "15.11719"}, {"city": "Sumbe", "lat": "-11.20605", "long": "13.84371"}, {"city": "Quibala", "lat": "-10.73366", "long": "14.97995"}, {"city": "Ondjiva", "lat": "-17.06667", "long": "15.73333"}, {"city": "Namibe", "lat": "-15.19611", "long": "12.15222"}, {"city": "Menongue", "lat": "-14.6585", "long": "17.69099"}, {"city": "Luena", "lat": "-11.78333", "long": "19.91667"}, {"city": "Lubango", "lat": "-14.91717", "long": "13.4925"}, {"city": "Longonjo", "lat": "-12.90667", "long": "15.25333"}, {"city": "Lobito", "lat": "-12.3644", "long": "13.53601"}, {"city": "Cuito", "lat": "-12.38333", "long": "16.93333"}, {"city": "Huambo", "lat": "-12.77611", "long": "15.73917"}, {"city": "Chissamba", "lat": "-12.16667", "long": "17.33333"}, {"city": "Catumbela", "lat": "-12.43002", "long": "13.54677"}, {"city": "Catabola", "lat": "-12.15", "long": "17.28333"}, {"city": "Camacupa", "lat": "-12.01667", "long": "17.48333"}, {"city": "Caconda", "lat": "-13.73333", "long": "15.06667"}, {"city": "Caala", "lat": "-12.8525", "long": "15.56056"}, {"city": "Benguela", "lat": "-12.57626", "long": "13.40547"}, {"city": "Chela", "lat": "-12.30261", "long": "15.43358"}]}, "AR": {"cities": [{"city": "Wanda", "lat": "-25.96879", "long": "-54.56285"}, {"city": "Villa Ortuzar", "lat": "-34.57973", "long": "-58.46829"}, {"city": "Villa Ocampo", "lat": "-28.48752", "long": "-59.35515"}, {"city": "Villa Maria Grande", "lat": "-31.66565", "long": "-59.90182"}, {"city": "Villa Lugano", "lat": "-34.67907", "long": "-58.47263"}, {"city": "Villa Hernandarias", "lat": "-31.23097", "long": "-59.98464"}, {"city": "Villaguay", "lat": "-31.8653", "long": "-59.02689"}, {"city": "Villa Gesell", "lat": "-37.26394", "long": "-56.97304"}, {"city": "Villa Elisa", "lat": "-32.1632", "long": "-58.40082"}, {"city": "Veinticinco de Mayo", "lat": "-27.37679", "long": "-54.74312"}, {"city": "Urdinarrain", "lat": "-32.68573", "long": "-58.89323"}, {"city": "Tigre", "lat": "-34.42603", "long": "-58.57962"}, {"city": "Tandil", "lat": "-37.32167", "long": "-59.13316"}, {"city": "San Vicente", "lat": "-26.61667", "long": "-54.13333"}, {"city": "Santo Tome", "lat": "-28.54939", "long": "-56.04077"}, {"city": "Santo Pipo", "lat": "-27.14132", "long": "-55.40867"}, {"city": "Santa Rosa", "lat": "-28.26318", "long": "-58.11891"}, {"city": "Santa Lucia", "lat": "-28.98746", "long": "-59.10287"}, {"city": "Santa Elena", "lat": "-30.94432", "long": "-59.78832"}, {"city": "San Salvador", "lat": "-31.62487", "long": "-58.50524"}, {"city": "San Pedro", "lat": "-33.67918", "long": "-59.66633"}, {"city": "San Pedro", "lat": "-26.62207", "long": "-54.10842"}, {"city": "San Miguel", "lat": "-27.99585", "long": "-57.58964"}, {"city": "San Luis del Palmar", "lat": "-27.5079", "long": "-58.55454"}, {"city": "San Lorenzo", "lat": "-28.13306", "long": "-58.76733"}, {"city": "San Jose de Feliciano", "lat": "-30.38452", "long": "-58.75167"}, {"city": "San Jose", "lat": "-27.76979", "long": "-55.7826"}, {"city": "San Javier", "lat": "-30.57781", "long": "-59.9317"}, {"city": "San Isidro", "lat": "-34.4721", "long": "-58.52708"}, {"city": "San Clemente del Tuyu", "lat": "-36.35694", "long": "-56.72351"}, {"city": "Saladas", "lat": "-28.25384", "long": "-58.62591"}, {"city": "Rosario del Tala", "lat": "-32.30286", "long": "-59.14545"}, {"city": "Retiro", "lat": "-34.58333", "long": "-58.38333"}, {"city": "Resistencia", "lat": "-27.46056", "long": "-58.98389"}, {"city": "Reconquista", "lat": "-29.15", "long": "-59.65"}, {"city": "Quilmes", "lat": "-34.72904", "long": "-58.26374"}, {"city": "Puerto Vilelas", "lat": "-27.51414", "long": "-58.93906"}, {"city": "Puerto Tirol", "lat": "-27.37218", "long": "-59.08206"}, {"city": "Puerto Rico", "lat": "-26.79598", "long": "-55.02402"}, {"city": "Puerto Piray", "lat": "-26.46937", "long": "-54.70736"}, {"city": "Puerto Libertad", "lat": "-25.91958", "long": "-54.58229"}, {"city": "Puerto Iguazu", "lat": "-25.59912", "long": "-54.57355"}, {"city": "Puerto Esperanza", "lat": "-26.02267", "long": "-54.61356"}, {"city": "Puerto Eldorado", "lat": "-26.40843", "long": "-54.69463"}, {"city": "Presidencia de la Plaza", "lat": "-27.00147", "long": "-59.84243"}, {"city": "Posadas", "lat": "-27.36708", "long": "-55.89608"}, {"city": "Pontevedra", "lat": "-34.74785", "long": "-58.70072"}, {"city": "Pirane", "lat": "-25.73239", "long": "-59.10879"}, {"city": "Pilar", "lat": "-34.45866", "long": "-58.9142"}, {"city": "Perugorria", "lat": "-29.34132", "long": "-58.61059"}, {"city": "Paso de los Libres", "lat": "-29.71251", "long": "-57.08771"}, {"city": "Paso de la Patria", "lat": "-27.31676", "long": "-58.57197"}, {"city": "Panambi", "lat": "-27.72369", "long": "-54.91515"}, {"city": "Pampa del Indio", "lat": "-26.04982", "long": "-59.93728"}, {"city": "Palo Santo", "lat": "-25.56332", "long": "-59.33781"}, {"city": "Obera", "lat": "-27.48706", "long": "-55.11994"}, {"city": "Nuestra Senora del Rosario de Caa Cati", "lat": "-27.75072", "long": "-57.62073"}, {"city": "Necochea", "lat": "-38.5545", "long": "-58.73961"}, {"city": "Moron", "lat": "-34.6509", "long": "-58.61956"}, {"city": "Monte Caseros", "lat": "-30.25359", "long": "-57.63626"}, {"city": "Montecarlo", "lat": "-26.5662", "long": "-54.757"}, {"city": "Mocoreta", "lat": "-30.61891", "long": "-57.96344"}, {"city": "Mercedes", "lat": "-34.65145", "long": "-59.43068"}, {"city": "Mercedes", "lat": "-29.18416", "long": "-58.07519"}, {"city": "Mburucuya", "lat": "-28.04532", "long": "-58.22835"}, {"city": "Margarita Belen", "lat": "-27.2616", "long": "-58.97219"}, {"city": "Mar del Plata", "lat": "-38.00042", "long": "-57.5562"}, {"city": "Malabrigo", "lat": "-29.34636", "long": "-59.96957"}, {"city": "Macia", "lat": "-32.1722", "long": "-59.39947"}, {"city": "Lujan", "lat": "-34.57028", "long": "-59.105"}, {"city": "Las Toscas", "lat": "-28.3529", "long": "-59.25795"}, {"city": "Larroque", "lat": "-33.03595", "long": "-59.00125"}, {"city": "La Plata", "lat": "-34.92145", "long": "-57.95453"}, {"city": "La Paz", "lat": "-30.74179", "long": "-59.64517"}, {"city": "La Leonesa", "lat": "-27.03786", "long": "-58.70347"}, {"city": "La Cruz", "lat": "-29.17443", "long": "-56.64326"}, {"city": "Jardin America", "lat": "-27.04346", "long": "-55.22698"}, {"city": "Itati", "lat": "-27.27043", "long": "-58.24458"}, {"city": "Ibarreta", "lat": "-25.21438", "long": "-59.85851"}, {"city": "Gualeguaychu", "lat": "-33.00937", "long": "-58.51722"}, {"city": "Gualeguay", "lat": "-33.14156", "long": "-59.30966"}, {"city": "Goya", "lat": "-29.13995", "long": "-59.26343"}, {"city": "Gobernador Roca", "lat": "-27.18636", "long": "-55.46433"}, {"city": "Gobernador Virasora", "lat": "-28.05", "long": "-56.03333"}, {"city": "General Jose de San Martin", "lat": "-26.53743", "long": "-59.34158"}, {"city": "Garupa", "lat": "-27.48171", "long": "-55.82921"}, {"city": "Garuhape", "lat": "-26.81768", "long": "-54.95665"}, {"city": "Formosa", "lat": "-26.18489", "long": "-58.17313"}, {"city": "Fontana", "lat": "-27.41813", "long": "-59.02392"}, {"city": "Federal", "lat": "-30.95465", "long": "-58.78326"}, {"city": "Federacion", "lat": "-31.00621", "long": "-57.89962"}, {"city": "Esquina", "lat": "-30.01476", "long": "-59.5289"}, {"city": "El Soberbio", "lat": "-27.29847", "long": "-54.19877"}, {"city": "El Colorado", "lat": "-26.30808", "long": "-59.37291"}, {"city": "El Alcazar", "lat": "-26.71459", "long": "-54.81523"}, {"city": "Dos de Mayo", "lat": "-27.02277", "long": "-54.68669"}, {"city": "Dolores", "lat": "-36.31321", "long": "-57.67918"}, {"city": "Curuzu Cuatia", "lat": "-29.79171", "long": "-58.0546"}, {"city": "Corrientes", "lat": "-27.46784", "long": "-58.8344"}, {"city": "Concordia", "lat": "-31.39296", "long": "-58.02089"}, {"city": "Concepcion del Uruguay", "lat": "-32.48463", "long": "-58.23217"}, {"city": "Concepcion de la Sierra", "lat": "-27.98311", "long": "-55.52031"}, {"city": "Comandante Fontana", "lat": "-25.33453", "long": "-59.68212"}, {"city": "Colonia Aurora", "lat": "-27.47428", "long": "-54.52498"}, {"city": "Colegiales", "lat": "-34.57365", "long": "-58.44924"}, {"city": "Clorinda", "lat": "-25.28481", "long": "-57.71851"}, {"city": "Chajari", "lat": "-30.75048", "long": "-57.97962"}, {"city": "Cerro Azul", "lat": "-27.6331", "long": "-55.4962"}, {"city": "Capiovi", "lat": "-26.92998", "long": "-55.06084"}, {"city": "Candelaria", "lat": "-27.4595", "long": "-55.74536"}, {"city": "Campo Viera", "lat": "-27.33271", "long": "-55.05651"}, {"city": "Campo Ramon", "lat": "-27.4549", "long": "-55.02122"}, {"city": "Campo Grande", "lat": "-27.2077", "long": "-54.97977"}, {"city": "Campana", "lat": "-34.16327", "long": "-58.95919"}, {"city": "Buenos Aires", "lat": "-34.61315", "long": "-58.37723"}, {"city": "Bovril", "lat": "-31.34311", "long": "-59.44512"}, {"city": "Boedo", "lat": "-34.63333", "long": "-58.41667"}, {"city": "Bernardo de Irigoyen", "lat": "-26.2552", "long": "-53.64581"}, {"city": "Berazategui", "lat": "-34.76531", "long": "-58.21278"}, {"city": "Belgrano", "lat": "-34.5627", "long": "-58.45829"}, {"city": "Barranqueras", "lat": "-27.48132", "long": "-58.93925"}, {"city": "Barracas", "lat": "-34.64966", "long": "-58.38341"}, {"city": "Azul", "lat": "-36.77698", "long": "-59.85854"}, {"city": "Avellaneda", "lat": "-29.11761", "long": "-59.65834"}, {"city": "Aristobulo del Valle", "lat": "-27.09625", "long": "-54.89626"}, {"city": "Alvear", "lat": "-29.09683", "long": "-56.55043"}, {"city": "Alba Posse", "lat": "-27.56978", "long": "-54.68262"}, {"city": "Zapala", "lat": "-38.89916", "long": "-70.05442"}, {"city": "Yuto", "lat": "-23.64342", "long": "-64.47194"}, {"city": "Yerba Buena", "lat": "-26.81667", "long": "-65.31667"}, {"city": "Yacimiento Rio Turbio", "lat": "-51.57321", "long": "-72.3508"}, {"city": "Villa Regina", "lat": "-39.1", "long": "-67.06667"}, {"city": "Villa Paula de Sarmiento", "lat": "-31.4933", "long": "-68.53838"}, {"city": "Villa Ojo de Agua", "lat": "-29.50003", "long": "-63.69377"}, {"city": "Villa Nueva", "lat": "-32.43293", "long": "-63.24763"}, {"city": "Villa Maria", "lat": "-32.40751", "long": "-63.24016"}, {"city": "Villa La Angostura", "lat": "-40.76173", "long": "-71.64631"}, {"city": "Villa Huidobro", "lat": "-34.83826", "long": "-64.58686"}, {"city": "Villa General Belgrano", "lat": "-31.97828", "long": "-64.55627"}, {"city": "Villa Dolores", "lat": "-31.94585", "long": "-65.18958"}, {"city": "Villa de Soto", "lat": "-30.85523", "long": "-64.99947"}, {"city": "Villa del Totoral", "lat": "-30.81667", "long": "-63.71667"}, {"city": "Villa Constitucion", "lat": "-33.22778", "long": "-60.3297"}, {"city": "Chanar Ladeado", "lat": "-33.32524", "long": "-62.03831"}, {"city": "Villa Carlos Paz", "lat": "-31.42414", "long": "-64.49778"}, {"city": "Villa Canas", "lat": "-34.00565", "long": "-61.60757"}, {"city": "Villa Berthet", "lat": "-27.29174", "long": "-60.41263"}, {"city": "Villa Angela", "lat": "-27.57383", "long": "-60.71526"}, {"city": "Villa Allende", "lat": "-31.29458", "long": "-64.29538"}, {"city": "Viedma", "lat": "-40.81345", "long": "-62.99668"}, {"city": "Vicuna Mackenna", "lat": "-33.91965", "long": "-64.39215"}, {"city": "Victorica", "lat": "-36.21505", "long": "-65.43586"}, {"city": "Victoria", "lat": "-32.61841", "long": "-60.15478"}, {"city": "Viale", "lat": "-31.86782", "long": "-60.00722"}, {"city": "Vera", "lat": "-29.4593", "long": "-60.21261"}, {"city": "Venado Tuerto", "lat": "-33.74556", "long": "-61.96885"}, {"city": "Veinticinco de Mayo", "lat": "-37.7741", "long": "-67.71638"}, {"city": "Veinticinco de Mayo", "lat": "-35.4323", "long": "-60.17271"}, {"city": "Valle Hermoso", "lat": "-31.11732", "long": "-64.48084"}, {"city": "Ushuaia", "lat": "-54.81084", "long": "-68.31591"}, {"city": "Unquillo", "lat": "-31.23073", "long": "-64.31615"}, {"city": "Trevelin", "lat": "-43.0858", "long": "-71.46386"}, {"city": "Tres Isletas", "lat": "-26.34067", "long": "-60.43207"}, {"city": "Tres Arroyos", "lat": "-38.37394", "long": "-60.27978"}, {"city": "Trelew", "lat": "-43.24895", "long": "-65.30505"}, {"city": "Trancas", "lat": "-26.23136", "long": "-65.28093"}, {"city": "Totoras", "lat": "-32.5844", "long": "-61.16852"}, {"city": "Tostado", "lat": "-29.23202", "long": "-61.76917"}, {"city": "Tinogasta", "lat": "-28.06319", "long": "-67.56488"}, {"city": "Tilisarao", "lat": "-32.73292", "long": "-65.29109"}, {"city": "Tilcara", "lat": "-23.57817", "long": "-65.39516"}, {"city": "Termas de Rio Hondo", "lat": "-27.49362", "long": "-64.85972"}, {"city": "Tartagal", "lat": "-22.51637", "long": "-63.80131"}, {"city": "Tancacha", "lat": "-32.24309", "long": "-63.9807"}, {"city": "Tafi Viejo", "lat": "-26.73201", "long": "-65.25921"}, {"city": "Taco Pozo", "lat": "-25.61557", "long": "-63.26708"}, {"city": "Suncho Corral", "lat": "-27.93357", "long": "-63.42938"}, {"city": "Sunchales", "lat": "-30.94404", "long": "-61.56148"}, {"city": "Simoca", "lat": "-27.26272", "long": "-65.35647"}, {"city": "Sierra Grande", "lat": "-41.60603", "long": "-65.35574"}, {"city": "Senillosa", "lat": "-39.01412", "long": "-68.43281"}, {"city": "Sastre", "lat": "-31.76762", "long": "-61.82887"}, {"city": "Sarmiento", "lat": "-45.58815", "long": "-69.06996"}, {"city": "Santo Tome", "lat": "-31.66274", "long": "-60.7653"}, {"city": "Santiago del Estero", "lat": "-27.79511", "long": "-64.26149"}, {"city": "Santa Sylvina", "lat": "-27.83261", "long": "-61.13747"}, {"city": "Santa Rosa de Rio Primero", "lat": "-31.15231", "long": "-63.40191"}, {"city": "Santa Rosa de Calamuchita", "lat": "-32.06905", "long": "-64.53631"}, {"city": "Santa Rosa", "lat": "-36.61667", "long": "-64.28333"}, {"city": "Santa Lucia", "lat": "-31.53987", "long": "-68.49503"}, {"city": "Santa Fe", "lat": "-31.64881", "long": "-60.70868"}, {"city": "San Salvador de Jujuy", "lat": "-24.19457", "long": "-65.29712"}, {"city": "San Ramon de la Nueva Oran", "lat": "-23.13705", "long": "-64.32426"}, {"city": "San Rafael", "lat": "-34.61772", "long": "-68.33007"}, {"city": "San Pedro de Jujuy", "lat": "-24.23127", "long": "-64.86614"}, {"city": "San Nicolas de los Arroyos", "lat": "-33.33425", "long": "-60.2108"}, {"city": "San Miguel de Tucuman", "lat": "-26.82414", "long": "-65.2226"}, {"city": "San Martin de los Andes", "lat": "-40.15789", "long": "-71.35337"}, {"city": "San Martin", "lat": "-33.08103", "long": "-68.46814"}, {"city": "San Martin", "lat": "-31.42957", "long": "-68.50065"}, {"city": "San Luis", "lat": "-33.29501", "long": "-66.33563"}, {"city": "San Justo", "lat": "-30.78913", "long": "-60.59189"}, {"city": "San Juan", "lat": "-31.5375", "long": "-68.53639"}, {"city": "San Jose de Jachal", "lat": "-30.24057", "long": "-68.74693"}, {"city": "San Jorge", "lat": "-31.89618", "long": "-61.85984"}, {"city": "San Francisco", "lat": "-31.42797", "long": "-62.08266"}, {"city": "San Fernando del Valle de Catamarca", "lat": "-28.46957", "long": "-65.78524"}, {"city": "San Cristobal", "lat": "-30.31053", "long": "-61.23724"}, {"city": "San Carlos Centro", "lat": "-31.72864", "long": "-61.09192"}, {"city": "San Bernardo", "lat": "-27.28782", "long": "-60.71252"}, {"city": "San Benito", "lat": "-31.78371", "long": "-60.44156"}, {"city": "San Antonio Oeste", "lat": "-40.73193", "long": "-64.94769"}, {"city": "San Agustin de Valle Fertil", "lat": "-30.63353", "long": "-67.46821"}, {"city": "Sampacho", "lat": "-33.3839", "long": "-64.72211"}, {"city": "Salta", "lat": "-24.7859", "long": "-65.41166"}, {"city": "Salsipuedes", "lat": "-31.13725", "long": "-64.29589"}, {"city": "Rufino", "lat": "-34.26827", "long": "-62.71262"}, {"city": "Rosario", "lat": "-32.94682", "long": "-60.63932"}, {"city": "Roldan", "lat": "-32.89846", "long": "-60.90681"}, {"city": "Rio Tercero", "lat": "-32.17301", "long": "-64.11405"}, {"city": "Rio Segundo", "lat": "-31.6526", "long": "-63.9099"}, {"city": "Rio Grande", "lat": "-53.78769", "long": "-67.70946"}, {"city": "Rio Gallegos", "lat": "-51.62261", "long": "-69.21813"}, {"city": "Rio Cuarto", "lat": "-33.13067", "long": "-64.34992"}, {"city": "Rio Ceballos", "lat": "-31.16486", "long": "-64.32241"}, {"city": "Recreo", "lat": "-31.49076", "long": "-60.73299"}, {"city": "Recreo", "lat": "-29.28184", "long": "-65.06096"}, {"city": "Realico", "lat": "-35.03658", "long": "-64.2447"}, {"city": "Rawson", "lat": "-43.30016", "long": "-65.10228"}, {"city": "Rafaela", "lat": "-31.25033", "long": "-61.4867"}, {"city": "Rada Tilly", "lat": "-45.92462", "long": "-67.55424"}, {"city": "Quitilipi", "lat": "-26.86913", "long": "-60.21683"}, {"city": "Quimili", "lat": "-27.64615", "long": "-62.41655"}, {"city": "Punta Alta", "lat": "-38.87588", "long": "-62.07359"}, {"city": "San Julian", "lat": "-49.30554", "long": "-67.72743"}, {"city": "Puerto Madryn", "lat": "-42.7692", "long": "-65.03851"}, {"city": "Puerto Deseado", "lat": "-47.75034", "long": "-65.89382"}, {"city": "Presidencia Roque Saenz Pena", "lat": "-26.78522", "long": "-60.43876"}, {"city": "Pozo del Molle", "lat": "-32.0186", "long": "-62.91984"}, {"city": "Pocito", "lat": "-31.68333", "long": "-68.58333"}, {"city": "Plottier", "lat": "-38.96667", "long": "-68.23333"}, {"city": "Plaza Huincul", "lat": "-38.92598", "long": "-69.20863"}, {"city": "Pilar", "lat": "-31.6789", "long": "-63.87964"}, {"city": "Pico Truncado", "lat": "-46.7949", "long": "-67.95731"}, {"city": "Pergamino", "lat": "-33.88995", "long": "-60.57357"}, {"city": "Perez", "lat": "-32.99835", "long": "-60.76791"}, {"city": "Parana", "lat": "-31.73271", "long": "-60.52897"}, {"city": "Pampa del Infierno", "lat": "-26.50517", "long": "-61.17436"}, {"city": "Palpala", "lat": "-24.25647", "long": "-65.21163"}, {"city": "Palma Sola", "lat": "-23.97771", "long": "-64.30311"}, {"city": "Oncativo", "lat": "-31.91353", "long": "-63.68201"}, {"city": "Oliva", "lat": "-32.04158", "long": "-63.56978"}, {"city": "Olavarria", "lat": "-36.89272", "long": "-60.32254"}, {"city": "Nueve de Julio", "lat": "-35.44437", "long": "-60.88313"}, {"city": "Nueve de Julio", "lat": "-31.66914", "long": "-68.39023"}, {"city": "Neuquen", "lat": "-38.95161", "long": "-68.0591"}, {"city": "Morteros", "lat": "-30.71164", "long": "-61.99862"}, {"city": "Monteros", "lat": "-27.16741", "long": "-65.49832"}, {"city": "Monte Maiz", "lat": "-33.20462", "long": "-62.60085"}, {"city": "Monte Cristo", "lat": "-31.34312", "long": "-63.94437"}, {"city": "Monte Buey", "lat": "-32.91642", "long": "-62.45669"}, {"city": "Mina Clavero", "lat": "-31.72101", "long": "-65.00619"}, {"city": "Merlo", "lat": "-32.34288", "long": "-65.01396"}, {"city": "Mendoza", "lat": "-32.89084", "long": "-68.82717"}, {"city": "Marcos Juarez", "lat": "-32.6978", "long": "-62.10672"}, {"city": "Malvinas Argentinas", "lat": "-31.38194", "long": "-64.05545"}, {"city": "Malagueno", "lat": "-31.46467", "long": "-64.3584"}, {"city": "Machagai", "lat": "-26.92614", "long": "-60.04955"}, {"city": "Los Frentones", "lat": "-26.4077", "long": "-61.41367"}, {"city": "Los Altos", "lat": "-28.04845", "long": "-65.49945"}, {"city": "Lincoln", "lat": "-34.86649", "long": "-61.5302"}, {"city": "Libertador General San Martin", "lat": "-23.80644", "long": "-64.78757"}, {"city": "Leones", "lat": "-32.66174", "long": "-62.29678"}, {"city": "La Toma", "lat": "-33.05258", "long": "-65.62385"}, {"city": "Las Varillas", "lat": "-31.87208", "long": "-62.71946"}, {"city": "Las Rosas", "lat": "-32.47661", "long": "-61.58041"}, {"city": "Las Parejas", "lat": "-32.68478", "long": "-61.51637"}, {"city": "Las Lomitas", "lat": "-24.70955", "long": "-60.59303"}, {"city": "Las Lajitas", "lat": "-24.72762", "long": "-64.19335"}, {"city": "Las Higueras", "lat": "-33.09231", "long": "-64.28899"}, {"city": "Las Heras", "lat": "-46.54186", "long": "-68.93593"}, {"city": "Las Brenas", "lat": "-27.08966", "long": "-61.08161"}, {"city": "La Rioja", "lat": "-29.41105", "long": "-66.85067"}, {"city": "La Quiaca", "lat": "-22.10236", "long": "-65.59299"}, {"city": "Lamarque", "lat": "-39.42304", "long": "-65.70208"}, {"city": "Laguna Paiva", "lat": "-31.30391", "long": "-60.65894"}, {"city": "Laguna Larga", "lat": "-31.77652", "long": "-63.80104"}, {"city": "La Falda", "lat": "-31.08841", "long": "-64.48987"}, {"city": "La Cumbre", "lat": "-30.98201", "long": "-64.49139"}, {"city": "La Cocha", "lat": "-27.76927", "long": "-65.58711"}, {"city": "La Carlota", "lat": "-33.41993", "long": "-63.29769"}, {"city": "La Calera", "lat": "-31.34377", "long": "-64.33529"}, {"city": "Laboulaye", "lat": "-34.12662", "long": "-63.39119"}, {"city": "Laborde", "lat": "-33.15319", "long": "-62.85661"}, {"city": "Justo Daract", "lat": "-33.8594", "long": "-65.18277"}, {"city": "Justiniano Posse", "lat": "-32.88411", "long": "-62.67788"}, {"city": "Junin de los Andes", "lat": "-39.95043", "long": "-71.06936"}, {"city": "Junin", "lat": "-34.58382", "long": "-60.94332"}, {"city": "Joaquin V. Gonzalez", "lat": "-25.11364", "long": "-64.12628"}, {"city": "Jesus Maria", "lat": "-30.98153", "long": "-64.09424"}, {"city": "Intendente Alvear", "lat": "-35.23383", "long": "-63.59205"}, {"city": "Ingenio La Esperanza", "lat": "-24.22554", "long": "-64.83896"}, {"city": "Ingeniero Luis A. Huergo", "lat": "-39.07146", "long": "-67.2379"}, {"city": "Ingeniero Jacobacci", "lat": "-41.3292", "long": "-69.55015"}, {"city": "Ingeniero Guillermo N. Juarez", "lat": "-23.9", "long": "-61.85"}, {"city": "Icano", "lat": "-28.91934", "long": "-65.32817"}, {"city": "Humahuaca", "lat": "-23.20544", "long": "-65.35048"}, {"city": "Huinca Renanco", "lat": "-34.84038", "long": "-64.3758"}, {"city": "Huillapima", "lat": "-28.72533", "long": "-65.9787"}, {"city": "Huerta Grande", "lat": "-31.07524", "long": "-64.49063"}, {"city": "Hernando", "lat": "-32.42657", "long": "-63.73333"}, {"city": "Hermoso Campo", "lat": "-27.60816", "long": "-61.34441"}, {"city": "Guatrache", "lat": "-37.66776", "long": "-63.53021"}, {"city": "Graneros", "lat": "-27.64934", "long": "-65.4383"}, {"city": "Granadero Baigorria", "lat": "-32.85683", "long": "-60.71754"}, {"city": "Gobernador Galvez", "lat": "-33.03016", "long": "-60.64045"}, {"city": "General Villegas", "lat": "-35.03285", "long": "-63.01252"}, {"city": "General Roca", "lat": "-39.03333", "long": "-67.58333"}, {"city": "General Ramirez", "lat": "-32.17601", "long": "-60.20079"}, {"city": "General Pinedo", "lat": "-27.31667", "long": "-61.28333"}, {"city": "General Pico", "lat": "-35.65662", "long": "-63.75682"}, {"city": "General Levalle", "lat": "-34.01472", "long": "-63.92413"}, {"city": "General Fernandez Oro", "lat": "-38.95297", "long": "-67.92489"}, {"city": "General Enrique Mosconi", "lat": "-22.59588", "long": "-63.81255"}, {"city": "General Conesa", "lat": "-40.10408", "long": "-64.45592"}, {"city": "General Cabrera", "lat": "-32.81313", "long": "-63.87243"}, {"city": "General Acha", "lat": "-37.37698", "long": "-64.60431"}, {"city": "Galvez", "lat": "-32.02927", "long": "-61.22103"}, {"city": "Gaiman", "lat": "-43.2897", "long": "-65.4929"}, {"city": "Funes", "lat": "-32.91568", "long": "-60.80995"}, {"city": "Fray Luis Beltran", "lat": "-39.31369", "long": "-65.76002"}, {"city": "Fray Luis A. Beltran", "lat": "-32.79122", "long": "-60.72819"}, {"city": "Fraile Pintado", "lat": "-23.94079", "long": "-64.79943"}, {"city": "Firmat", "lat": "-33.45937", "long": "-61.4832"}, {"city": "Fiambala", "lat": "-27.67225", "long": "-67.6187"}, {"city": "Famailla", "lat": "-27.05413", "long": "-65.40329"}, {"city": "Esquel", "lat": "-42.91147", "long": "-71.31947"}, {"city": "Esperanza", "lat": "-31.4488", "long": "-60.93173"}, {"city": "Embarcacion", "lat": "-23.21003", "long": "-64.09965"}, {"city": "Embalse", "lat": "-32.18", "long": "-64.41809"}, {"city": "El Trebol", "lat": "-32.2008", "long": "-61.7014"}, {"city": "El Quebrachal", "lat": "-25.28333", "long": "-64.06667"}, {"city": "El Galpon", "lat": "-25.38069", "long": "-64.65259"}, {"city": "El Carril", "lat": "-25.0741", "long": "-65.49174"}, {"city": "El Calafate", "lat": "-50.34075", "long": "-72.27682"}, {"city": "El Bolson", "lat": "-41.96051", "long": "-71.53336"}, {"city": "Eduardo Castex", "lat": "-35.91501", "long": "-64.29448"}, {"city": "Diamante", "lat": "-32.06641", "long": "-60.63837"}, {"city": "Devoto", "lat": "-31.40431", "long": "-62.30634"}, {"city": "Despenaderos", "lat": "-31.81626", "long": "-64.28989"}, {"city": "Dean Funes", "lat": "-30.42036", "long": "-64.34984"}, {"city": "Cutral-Co", "lat": "-38.93424", "long": "-69.23052"}, {"city": "Cruz del Eje", "lat": "-30.72644", "long": "-64.80387"}, {"city": "Cruz Alta", "lat": "-33.00887", "long": "-61.80746"}, {"city": "Crespo", "lat": "-32.02873", "long": "-60.30658"}, {"city": "Cosquin", "lat": "-31.24508", "long": "-64.46563"}, {"city": "Corzuela", "lat": "-26.95374", "long": "-60.96928"}, {"city": "Corral de Bustos", "lat": "-33.28205", "long": "-62.18463"}, {"city": "Coronel Suarez", "lat": "-37.45467", "long": "-61.93343"}, {"city": "Coronel Moldes", "lat": "-33.6227", "long": "-64.59711"}, {"city": "Coronel Du Graty", "lat": "-27.68038", "long": "-60.91462"}, {"city": "Coronel Dorrego", "lat": "-38.71867", "long": "-61.28733"}, {"city": "Coronda", "lat": "-31.97263", "long": "-60.91983"}, {"city": "Cordoba", "lat": "-31.4135", "long": "-64.18105"}, {"city": "Concepcion del Bermejo", "lat": "-26.59926", "long": "-60.94617"}, {"city": "Comodoro Rivadavia", "lat": "-45.86413", "long": "-67.49656"}, {"city": "Clodomira", "lat": "-27.5744", "long": "-64.13108"}, {"city": "Cipolletti", "lat": "-38.93392", "long": "-67.99032"}, {"city": "Cinco Saltos", "lat": "-38.82225", "long": "-68.06293"}, {"city": "Chos Malal", "lat": "-37.37809", "long": "-70.27085"}, {"city": "Choele Choel", "lat": "-39.28941", "long": "-65.6606"}, {"city": "Chivilcoy", "lat": "-34.89566", "long": "-60.01667"}, {"city": "Chimbas", "lat": "-31.48333", "long": "-68.53333"}, {"city": "Chilecito", "lat": "-29.16195", "long": "-67.4974"}, {"city": "Chicoana", "lat": "-25.10502", "long": "-65.53473"}, {"city": "Charata", "lat": "-27.21438", "long": "-61.18795"}, {"city": "Chamical", "lat": "-30.36002", "long": "-66.31399"}, {"city": "Chacabuco", "lat": "-34.64167", "long": "-60.47389"}, {"city": "Cervantes", "lat": "-39.05444", "long": "-67.39426"}, {"city": "Ceres", "lat": "-29.881", "long": "-61.94504"}, {"city": "Centenario", "lat": "-38.82955", "long": "-68.1318"}, {"city": "Caucete", "lat": "-31.65179", "long": "-68.28105"}, {"city": "Catriel", "lat": "-37.87907", "long": "-67.7956"}, {"city": "Castelli", "lat": "-25.94679", "long": "-60.61947"}, {"city": "Casilda", "lat": "-33.04417", "long": "-61.16806"}, {"city": "Carcarana", "lat": "-32.85679", "long": "-61.15331"}, {"city": "Capitan Bermudez", "lat": "-32.82262", "long": "-60.71852"}, {"city": "Capilla del Monte", "lat": "-30.86088", "long": "-64.52515"}, {"city": "Capayan", "lat": "-28.77436", "long": "-66.04749"}, {"city": "Canals", "lat": "-33.56542", "long": "-62.88927"}, {"city": "Canada de Gomez", "lat": "-32.81636", "long": "-61.39493"}, {"city": "Campo Largo", "lat": "-26.80077", "long": "-60.84215"}, {"city": "Campo Gallo", "lat": "-26.58333", "long": "-62.85"}, {"city": "Calingasta", "lat": "-31.33394", "long": "-69.4208"}, {"city": "Calilegua", "lat": "-23.77368", "long": "-64.77002"}, {"city": "Caleta Olivia", "lat": "-46.43929", "long": "-67.52814"}, {"city": "Calchaqui", "lat": "-29.88767", "long": "-60.28697"}, {"city": "Caimancito", "lat": "-23.74069", "long": "-64.5937"}, {"city": "Cafayate", "lat": "-26.07286", "long": "-65.97766"}, {"city": "Brinkmann", "lat": "-30.86589", "long": "-62.03742"}, {"city": "Berrotaran", "lat": "-32.451", "long": "-64.38867"}, {"city": "Beltran", "lat": "-27.82913", "long": "-64.06098"}, {"city": "Bell Ville", "lat": "-32.62591", "long": "-62.68873"}, {"city": "Bella Vista", "lat": "-27.03424", "long": "-65.30196"}, {"city": "Balnearia", "lat": "-31.0088", "long": "-62.66733"}, {"city": "Bahia Blanca", "lat": "-38.71959", "long": "-62.27243"}, {"city": "Avia Terai", "lat": "-26.68532", "long": "-60.7292"}, {"city": "Arroyo Seco", "lat": "-33.15489", "long": "-60.50863"}, {"city": "Arroyito", "lat": "-31.42022", "long": "-63.05002"}, {"city": "Armstrong", "lat": "-32.78215", "long": "-61.60222"}, {"city": "Arias", "lat": "-33.64411", "long": "-62.40272"}, {"city": "Arauco", "lat": "-28.58071", "long": "-66.7925"}, {"city": "Apolinario Saravia", "lat": "-24.43276", "long": "-63.99535"}, {"city": "Andalgala", "lat": "-27.58185", "long": "-66.31626"}, {"city": "Anatuya", "lat": "-28.46064", "long": "-62.83472"}, {"city": "Alta Gracia", "lat": "-31.65292", "long": "-64.42826"}, {"city": "Almafuerte", "lat": "-32.19296", "long": "-64.25559"}, {"city": "Allen", "lat": "-38.97736", "long": "-67.82714"}, {"city": "Alderetes", "lat": "-26.81667", "long": "-65.13333"}, {"city": "Albardon", "lat": "-31.43722", "long": "-68.52556"}, {"city": "Aguilares", "lat": "-27.4338", "long": "-65.61427"}, {"city": "Adelia Maria", "lat": "-33.63152", "long": "-64.02097"}, {"city": "Abra Pampa", "lat": "-22.72049", "long": "-65.69697"}, {"city": "Balvanera", "lat": "-34.61032", "long": "-58.39766"}, {"city": "Villa Santa Rita", "lat": "-34.61082", "long": "-58.481"}, {"city": "Villa Mercedes", "lat": "-33.67571", "long": "-65.45783"}, {"city": "La Punta", "lat": "-33.18368", "long": "-66.3127"}, {"city": "San Carlos de Bariloche", "lat": "-41.14557", "long": "-71.30822"}, {"city": "Rio Turbio", "lat": "-51.53587", "long": "-72.33673"}, {"city": "Adrogue", "lat": "-34.80041", "long": "-58.38384"}]}, "AS": {"cities": [{"city": "Ta`u", "lat": "-14.23361", "long": "-169.51444"}, {"city": "Tafuna", "lat": "-14.33583", "long": "-170.72"}, {"city": "Pago Pago", "lat": "-14.27806", "long": "-170.7025"}]}, "AT": {"cities": [{"city": "Zirl", "lat": "47.2741", "long": "11.23961"}, {"city": "Zell am See", "lat": "47.32556", "long": "12.79444"}, {"city": "Woergl", "lat": "47.48906", "long": "12.06174"}, {"city": "Wolfurt", "lat": "47.46667", "long": "9.75"}, {"city": "Woelfnitz", "lat": "46.66639", "long": "14.25806"}, {"city": "Wimpassing", "lat": "48.16667", "long": "13.98333"}, {"city": "Wilten", "lat": "47.25829", "long": "11.38808"}, {"city": "Wilhelmsburg", "lat": "48.10571", "long": "15.60539"}, {"city": "Wiener Neustadt", "lat": "47.80485", "long": "16.23196"}, {"city": "Wiener Neudorf", "lat": "48.08278", "long": "16.31384"}, {"city": "Vienna", "lat": "48.20849", "long": "16.37208"}, {"city": "Wetzelsdorf", "lat": "47.05293", "long": "15.39923"}, {"city": "Wels", "lat": "48.16667", "long": "14.03333"}, {"city": "Weiz", "lat": "47.21667", "long": "15.61667"}, {"city": "Weinzierl bei Krems", "lat": "48.4", "long": "15.6"}, {"city": "Wattens", "lat": "47.29419", "long": "11.5907"}, {"city": "Waltendorf", "lat": "47.06667", "long": "15.46667"}, {"city": "Voesendorf", "lat": "48.12107", "long": "16.34036"}, {"city": "Vorchdorf", "lat": "48.00388", "long": "13.92122"}, {"city": "Voels", "lat": "47.25", "long": "11.33333"}, {"city": "Voelkendorf", "lat": "46.60806", "long": "13.83153"}, {"city": "Voitsberg", "lat": "47.04445", "long": "15.15313"}, {"city": "Villach", "lat": "46.61028", "long": "13.85583"}, {"city": "Viktring", "lat": "46.59194", "long": "14.26917"}, {"city": "Tulln", "lat": "48.32829", "long": "16.05858"}, {"city": "Trofaiach", "lat": "47.42524", "long": "15.00681"}, {"city": "Traun", "lat": "48.22656", "long": "14.23459"}, {"city": "Traiskirchen", "lat": "48.01485", "long": "16.29324"}, {"city": "Ternitz", "lat": "47.71565", "long": "16.03575"}, {"city": "Telfs", "lat": "47.30707", "long": "11.06817"}, {"city": "Strasshof an der Nordbahn", "lat": "48.31667", "long": "16.66667"}, {"city": "Strassgang", "lat": "47.03333", "long": "15.4"}, {"city": "Stockerau", "lat": "48.38333", "long": "16.21667"}, {"city": "Steyr", "lat": "48.04274", "long": "14.42127"}, {"city": "Spratzern", "lat": "48.17044", "long": "15.61844"}, {"city": "Spittal an der Drau", "lat": "46.8", "long": "13.5"}, {"city": "Sollenau", "lat": "47.89834", "long": "16.24833"}, {"city": "Hall in Tirol", "lat": "47.28333", "long": "11.51667"}, {"city": "Simmering", "lat": "48.18333", "long": "16.43333"}, {"city": "Seiersberg", "lat": "47", "long": "15.4"}, {"city": "Schwechat", "lat": "48.13333", "long": "16.46667"}, {"city": "Schwaz", "lat": "47.35169", "long": "11.71014"}, {"city": "Sankt Veit an der Glan", "lat": "46.76806", "long": "14.36028"}, {"city": "Sankt Valentin", "lat": "48.16667", "long": "14.51667"}, {"city": "Sankt Ruprecht", "lat": "46.6", "long": "14.31667"}, {"city": "Sankt Poelten", "lat": "48.2", "long": "15.63333"}, {"city": "Sankt Peter", "lat": "47.05", "long": "15.46667"}, {"city": "Sankt Peter", "lat": "46.62978", "long": "14.34016"}, {"city": "Sankt Martin", "lat": "46.61667", "long": "14.28333"}, {"city": "Sankt Martin", "lat": "48.23091", "long": "14.26781"}, {"city": "Sankt Johann in Tirol", "lat": "47.5233", "long": "12.4232"}, {"city": "Salzburg", "lat": "47.79941", "long": "13.04399"}, {"city": "Saalfelden am Steinernen Meer", "lat": "47.42681", "long": "12.848"}, {"city": "Rum", "lat": "47.28333", "long": "11.45"}, {"city": "Ries", "lat": "47.08315", "long": "15.485"}, {"city": "Ried im Innkreis", "lat": "48.21123", "long": "13.48855"}, {"city": "Reutte", "lat": "47.48333", "long": "10.71667"}, {"city": "Rankweil", "lat": "47.27108", "long": "9.64308"}, {"city": "Purkersdorf", "lat": "48.20769", "long": "16.17539"}, {"city": "Puntigam", "lat": "47.03333", "long": "15.43333"}, {"city": "Pressbaum", "lat": "48.18333", "long": "16.08333"}, {"city": "Pradl", "lat": "47.26539", "long": "11.4152"}, {"city": "Pinkafeld", "lat": "47.36667", "long": "16.11667"}, {"city": "Perg", "lat": "48.25", "long": "14.63333"}, {"city": "Perchtoldsdorf", "lat": "48.11935", "long": "16.26607"}, {"city": "Ottakring", "lat": "48.21667", "long": "16.3"}, {"city": "Oberwart", "lat": "47.28971", "long": "16.20595"}, {"city": "Oberndorf bei Salzburg", "lat": "47.95", "long": "12.93333"}, {"city": "Neuzeug", "lat": "48.05", "long": "14.33333"}, {"city": "Neusiedl am See", "lat": "47.94901", "long": "16.8417"}, {"city": "Neunkirchen", "lat": "47.72096", "long": "16.08107"}, {"city": "Neuhofen an der Krems", "lat": "48.13866", "long": "14.22764"}, {"city": "Muerzzuschlag", "lat": "47.6066", "long": "15.67226"}, {"city": "Muehlau", "lat": "47.28333", "long": "11.4"}, {"city": "Moedling", "lat": "48.08605", "long": "16.28921"}, {"city": "Mistelbach", "lat": "48.57", "long": "16.57667"}, {"city": "Micheldorf in Oberoesterreich", "lat": "47.87764", "long": "14.13357"}, {"city": "Meidling", "lat": "48.16667", "long": "16.33333"}, {"city": "Mattighofen", "lat": "48.10732", "long": "13.15081"}, {"city": "Mattersburg", "lat": "47.73333", "long": "16.4"}, {"city": "Mariatrost", "lat": "47.1", "long": "15.5"}, {"city": "Maria Enzersdorf", "lat": "48.1", "long": "16.28333"}, {"city": "Marchtrenk", "lat": "48.19275", "long": "14.11394"}, {"city": "Lustenau", "lat": "47.42642", "long": "9.65851"}, {"city": "Lochau", "lat": "47.53333", "long": "9.75"}, {"city": "Linz", "lat": "48.30639", "long": "14.28611"}, {"city": "Liezen", "lat": "47.56667", "long": "14.23333"}, {"city": "Lienz", "lat": "46.8289", "long": "12.76903"}, {"city": "Liebenau", "lat": "47.03333", "long": "15.46667"}, {"city": "Lichtenegg", "lat": "48.15", "long": "14"}, {"city": "Leopoldsdorf", "lat": "48.11557", "long": "16.39126"}, {"city": "Leoben", "lat": "47.3765", "long": "15.09144"}, {"city": "Leibnitz", "lat": "46.78161", "long": "15.53836"}, {"city": "Lauterach", "lat": "47.47572", "long": "9.72941"}, {"city": "Langenzersdorf", "lat": "48.30432", "long": "16.36143"}, {"city": "Landeck", "lat": "47.13988", "long": "10.56593"}, {"city": "Laakirchen", "lat": "47.98188", "long": "13.82166"}, {"city": "Kufstein", "lat": "47.58333", "long": "12.16667"}, {"city": "Kremsmuenster", "lat": "48.0529", "long": "14.12919"}, {"city": "Krems an der Donau", "lat": "48.40921", "long": "15.61415"}, {"city": "Kottingbrunn", "lat": "47.95096", "long": "16.22715"}, {"city": "Korneuburg", "lat": "48.35", "long": "16.33333"}, {"city": "Knittelfeld", "lat": "47.21667", "long": "14.81667"}, {"city": "Klosterneuburg", "lat": "48.30521", "long": "16.32522"}, {"city": "Klagenfurt am Woerthersee", "lat": "46.62472", "long": "14.30528"}, {"city": "Kitzbuehel", "lat": "47.44637", "long": "12.39215"}, {"city": "Kirchberg in Tirol", "lat": "47.44539", "long": "12.31602"}, {"city": "Kindberg", "lat": "47.5", "long": "15.45"}, {"city": "Kalsdorf bei Graz", "lat": "46.96528", "long": "15.48028"}, {"city": "Judendorf", "lat": "47.4", "long": "15.1"}, {"city": "Judenburg", "lat": "47.16667", "long": "14.66667"}, {"city": "Jenbach", "lat": "47.39173", "long": "11.77245"}, {"city": "Innsbruck", "lat": "47.26266", "long": "11.39454"}, {"city": "Innere Stadt", "lat": "48.20906", "long": "16.37135"}, {"city": "Imst", "lat": "47.24504", "long": "10.73974"}, {"city": "Hoetting", "lat": "47.26815", "long": "11.36868"}, {"city": "Horn", "lat": "48.66274", "long": "15.65663"}, {"city": "Hoerbranz", "lat": "47.55", "long": "9.75"}, {"city": "Hollabrunn", "lat": "48.55", "long": "16.08333"}, {"city": "Hohenems", "lat": "47.36667", "long": "9.68306"}, {"city": "Hoechst", "lat": "47.45934", "long": "9.6405"}, {"city": "Himberg", "lat": "48.08333", "long": "16.43333"}, {"city": "Hietzing", "lat": "48.18623", "long": "16.2965"}, {"city": "Hernals", "lat": "48.23333", "long": "16.26667"}, {"city": "Hart", "lat": "48.26526", "long": "14.25691"}, {"city": "Hard", "lat": "47.48306", "long": "9.68306"}, {"city": "Hallein", "lat": "47.68333", "long": "13.1"}, {"city": "Hainburg an der Donau", "lat": "48.14627", "long": "16.94504"}, {"city": "Haid", "lat": "48.20477", "long": "14.25107"}, {"city": "Hafendorf", "lat": "47.45653", "long": "15.31837"}, {"city": "Haag", "lat": "48.27063", "long": "14.26875"}, {"city": "Guntramsdorf", "lat": "48.04687", "long": "16.31384"}, {"city": "Gross-Enzersdorf", "lat": "48.20278", "long": "16.55083"}, {"city": "Graz", "lat": "47.06667", "long": "15.45"}, {"city": "Gratkorn", "lat": "47.13333", "long": "15.35"}, {"city": "Goetzis", "lat": "47.33306", "long": "9.63306"}, {"city": "Goesting", "lat": "47.09788", "long": "15.39777"}, {"city": "Gmunden", "lat": "47.91839", "long": "13.79933"}, {"city": "Gleisdorf", "lat": "47.10559", "long": "15.71011"}, {"city": "Gerasdorf bei Wien", "lat": "48.29447", "long": "16.46765"}, {"city": "Gaenserndorf", "lat": "48.33925", "long": "16.72016"}, {"city": "Gallneukirchen", "lat": "48.35363", "long": "14.41604"}, {"city": "Fuerstenfeld", "lat": "47.05", "long": "16.08333"}, {"city": "Freistadt", "lat": "48.51103", "long": "14.50453"}, {"city": "Floridsdorf", "lat": "48.25", "long": "16.4"}, {"city": "Feldkirch", "lat": "47.23306", "long": "9.6"}, {"city": "Enns", "lat": "48.21346", "long": "14.47612"}, {"city": "Eisenstadt", "lat": "47.84565", "long": "16.52327"}, {"city": "Eggenberg", "lat": "47.07", "long": "15.39871"}, {"city": "Ebreichsdorf", "lat": "47.95579", "long": "16.40705"}, {"city": "Dornbirn", "lat": "47.41427", "long": "9.74195"}, {"city": "Deutsch-Wagram", "lat": "48.29972", "long": "16.56667"}, {"city": "Deutschlandsberg", "lat": "46.81528", "long": "15.22222"}, {"city": "Deuchendorf", "lat": "47.46593", "long": "15.32172"}, {"city": "Brunn am Gebirge", "lat": "48.10697", "long": "16.28466"}, {"city": "Bruck an der Mur", "lat": "47.41667", "long": "15.28333"}, {"city": "Bruck an der Leitha", "lat": "48.01667", "long": "16.76667"}, {"city": "Breitenfurt bei Wien", "lat": "48.13333", "long": "16.15"}, {"city": "Bregenz", "lat": "47.50311", "long": "9.7471"}, {"city": "Bludenz", "lat": "47.15476", "long": "9.82255"}, {"city": "Bischofshofen", "lat": "47.41667", "long": "13.21667"}, {"city": "Berndorf", "lat": "47.94567", "long": "16.10973"}, {"city": "Bad Voeslau", "lat": "47.96533", "long": "16.21359"}, {"city": "Bad Hall", "lat": "48.03832", "long": "14.20773"}, {"city": "Baden", "lat": "48.00543", "long": "16.23264"}, {"city": "Axams", "lat": "47.23111", "long": "11.27892"}, {"city": "Arzl", "lat": "47.28333", "long": "11.43333"}, {"city": "Annabichl", "lat": "46.65", "long": "14.31667"}, {"city": "Amstetten", "lat": "48.1229", "long": "14.87206"}, {"city": "Amras", "lat": "47.25", "long": "11.41667"}, {"city": "Altach", "lat": "47.35", "long": "9.65"}, {"city": "Absam", "lat": "47.29572", "long": "11.50593"}, {"city": "Finkenstein am Faaker See", "lat": "46.57904", "long": "13.93496"}, {"city": "Attnang-Puchheim", "lat": "48.00833", "long": "13.71667"}, {"city": "Auen", "lat": "46.59963", "long": "13.84389"}, {"city": "Favoriten", "lat": "48.16116", "long": "16.38233"}, {"city": "Frastanz", "lat": "47.21735", "long": "9.62995"}, {"city": "Kirchbichl", "lat": "47.51743", "long": "12.09629"}, {"city": "Kirchenviertel", "lat": "47.13124", "long": "15.34764"}, {"city": "Oberhaid", "lat": "48.17593", "long": "14.01495"}, {"city": "Villacher Vorstadt", "lat": "46.62368", "long": "14.28892"}, {"city": "Lind", "lat": "46.62244", "long": "13.84715"}, {"city": "Villach-Innere Stadt", "lat": "46.61275", "long": "13.84638"}, {"city": "Donaustadt", "lat": "48.2333", "long": "16.46002"}, {"city": "Jakomini", "lat": "47.05441", "long": "15.44984"}, {"city": "Lend", "lat": "47.08256", "long": "15.41589"}, {"city": "Geidorf", "lat": "47.08393", "long": "15.444"}, {"city": "Sankt Leonhard", "lat": "47.06924", "long": "15.45784"}, {"city": "Andritz", "lat": "47.11387", "long": "15.42348"}, {"city": "Gries", "lat": "47.06236", "long": "15.42421"}]}, "AU": {"cities": [{"city": "Wembley", "lat": "-31.93308", "long": "115.81783"}, {"city": "Wanneroo", "lat": "-31.75", "long": "115.8"}, {"city": "Victor Harbor", "lat": "-35.55042", "long": "138.62154"}, {"city": "Swan View", "lat": "-31.88333", "long": "116.05"}, {"city": "Subiaco", "lat": "-31.9485", "long": "115.8268"}, {"city": "Spearwood", "lat": "-32.10534", "long": "115.77797"}, {"city": "South Perth", "lat": "-31.98333", "long": "115.86667"}, {"city": "Seaton", "lat": "-34.9", "long": "138.51667"}, {"city": "Scarborough", "lat": "-31.89578", "long": "115.76431"}, {"city": "Salisbury", "lat": "-34.76667", "long": "138.63333"}, {"city": "Safety Bay", "lat": "-32.30463", "long": "115.74213"}, {"city": "Rockingham", "lat": "-32.27682", "long": "115.72978"}, {"city": "Prospect", "lat": "-34.88241", "long": "138.5933"}, {"city": "Port Pirie", "lat": "-33.19176", "long": "138.01746"}, {"city": "Port Lincoln", "lat": "-34.72625", "long": "135.87442"}, {"city": "Port Hedland", "lat": "-20.31215", "long": "118.61059"}, {"city": "Port Augusta West", "lat": "-32.48611", "long": "137.75833"}, {"city": "Port Augusta", "lat": "-32.49597", "long": "137.77281"}, {"city": "Perth", "lat": "-31.95224", "long": "115.8614"}, {"city": "Nuriootpa", "lat": "-34.46825", "long": "138.99767"}, {"city": "Northam", "lat": "-31.64932", "long": "116.67423"}, {"city": "Newman", "lat": "-23.35644", "long": "119.73553"}, {"city": "Nedlands", "lat": "-31.98184", "long": "115.8073"}, {"city": "Murray Bridge", "lat": "-35.11986", "long": "139.27345"}, {"city": "Mount Isa", "lat": "-20.72523", "long": "139.49727"}, {"city": "Mount Barker", "lat": "-35.06667", "long": "138.86667"}, {"city": "Mosman Park", "lat": "-32.00538", "long": "115.7638"}, {"city": "Morphett Vale", "lat": "-35.13333", "long": "138.51667"}, {"city": "Modbury", "lat": "-34.83333", "long": "138.68333"}, {"city": "McMinns Lagoon", "lat": "-12.54774", "long": "131.07625"}, {"city": "Maylands", "lat": "-31.93097", "long": "115.89486"}, {"city": "Margaret River", "lat": "-33.95504", "long": "115.07599"}, {"city": "Mandurah", "lat": "-32.5269", "long": "115.7217"}, {"city": "Maddington", "lat": "-32.05", "long": "115.98333"}, {"city": "Kwinana", "lat": "-32.23013", "long": "115.78128"}, {"city": "Kununurra", "lat": "-15.77825", "long": "128.74208"}, {"city": "Kenwick", "lat": "-32.03333", "long": "115.96667"}, {"city": "Kelmscott", "lat": "-32.12434", "long": "116.0259"}, {"city": "Katherine", "lat": "-14.46517", "long": "132.26347"}, {"city": "Kalgoorlie", "lat": "-30.74614", "long": "121.4742"}, {"city": "Ingle Farm", "lat": "-34.83333", "long": "138.63333"}, {"city": "Hope Valley", "lat": "-34.83333", "long": "138.7"}, {"city": "Happy Valley", "lat": "-35.08333", "long": "138.53333"}, {"city": "Grange", "lat": "-34.90223", "long": "138.49022"}, {"city": "Gosnells", "lat": "-32.081", "long": "116.0054"}, {"city": "Golden Grove", "lat": "-34.78333", "long": "138.73333"}, {"city": "Geraldton", "lat": "-28.77897", "long": "114.61459"}, {"city": "Gawler", "lat": "-34.60251", "long": "138.74902"}, {"city": "Fremantle", "lat": "-32.05632", "long": "115.74557"}, {"city": "Findon", "lat": "-34.9", "long": "138.53333"}, {"city": "Esperance", "lat": "-33.85919", "long": "121.89164"}, {"city": "Darwin", "lat": "-12.46113", "long": "130.84185"}, {"city": "Cottesloe", "lat": "-31.99426", "long": "115.75816"}, {"city": "Collie", "lat": "-33.36206", "long": "116.15617"}, {"city": "Carnarvon", "lat": "-24.88258", "long": "113.65713"}, {"city": "Campbelltown", "lat": "-34.88333", "long": "138.66667"}, {"city": "Busselton", "lat": "-33.65249", "long": "115.3455"}, {"city": "Bunbury", "lat": "-33.32711", "long": "115.64137"}, {"city": "Broome", "lat": "-17.95538", "long": "122.23922"}, {"city": "Boulder", "lat": "-30.78204", "long": "121.4912"}, {"city": "Bentley", "lat": "-32.00224", "long": "115.92473"}, {"city": "Bassendean", "lat": "-31.90906", "long": "115.9437"}, {"city": "Australind", "lat": "-33.2792", "long": "115.71504"}, {"city": "Armadale", "lat": "-32.14607", "long": "116.0093"}, {"city": "Applecross", "lat": "-32.01667", "long": "115.83333"}, {"city": "Alice Springs", "lat": "-23.69748", "long": "133.88362"}, {"city": "Aldinga", "lat": "-35.28333", "long": "138.48333"}, {"city": "Albany", "lat": "-35.02692", "long": "117.88369"}, {"city": "Adelaide", "lat": "-34.92866", "long": "138.59863"}, {"city": "Eaton", "lat": "-33.31664", "long": "115.70503"}, {"city": "Quinns Rocks", "lat": "-31.67379", "long": "115.70372"}, {"city": "East Fremantle", "lat": "-32.03823", "long": "115.7676"}, {"city": "Claremont", "lat": "-31.97961", "long": "115.7823"}, {"city": "Bicton", "lat": "-32.02778", "long": "115.78333"}, {"city": "Attadale", "lat": "-32.02489", "long": "115.802"}, {"city": "Warnbro", "lat": "-32.34017", "long": "115.7473"}, {"city": "Mullaloo", "lat": "-31.77896", "long": "115.73676"}, {"city": "Young", "lat": "-34.3135", "long": "148.30107"}, {"city": "Yeppoon", "lat": "-23.12683", "long": "150.74406"}, {"city": "Yass", "lat": "-34.84036", "long": "148.90987"}, {"city": "Yarrawonga", "lat": "-36.01923", "long": "145.99973"}, {"city": "Yarraville", "lat": "-37.81667", "long": "144.9"}, {"city": "Wynyard", "lat": "-40.9897", "long": "145.72617"}, {"city": "Wynnum", "lat": "-27.44527", "long": "153.15813"}, {"city": "Woodridge", "lat": "-27.63333", "long": "153.1"}, {"city": "Wodonga", "lat": "-36.12179", "long": "146.88809"}, {"city": "Windsor", "lat": "-37.85344", "long": "144.99241"}, {"city": "Williamstown", "lat": "-37.86349", "long": "144.899"}, {"city": "Wheelers Hill", "lat": "-37.9", "long": "145.18333"}, {"city": "Westmead", "lat": "-33.80383", "long": "150.98768"}, {"city": "Werribee", "lat": "-37.9", "long": "144.66667"}, {"city": "Wellington Point", "lat": "-27.48333", "long": "153.25"}, {"city": "Wellington", "lat": "-32.55588", "long": "148.94508"}, {"city": "Watsonia", "lat": "-37.71667", "long": "145.08333"}, {"city": "Warwick", "lat": "-28.21901", "long": "152.03438"}, {"city": "Warrnambool", "lat": "-38.38176", "long": "142.48799"}, {"city": "Warrandyte", "lat": "-37.75", "long": "145.23333"}, {"city": "Warragul", "lat": "-38.15912", "long": "145.93118"}, {"city": "Wantirna South", "lat": "-37.88333", "long": "145.21667"}, {"city": "Wantirna", "lat": "-37.85", "long": "145.21667"}, {"city": "Wangaratta", "lat": "-36.35846", "long": "146.32056"}, {"city": "Wahroonga", "lat": "-33.71816", "long": "151.11561"}, {"city": "Wagga Wagga", "lat": "-35.12577", "long": "147.35375"}, {"city": "Victoria Point", "lat": "-27.58329", "long": "153.31172"}, {"city": "Vermont", "lat": "-37.83616", "long": "145.19428"}, {"city": "Urangan", "lat": "-25.29214", "long": "152.90535"}, {"city": "Upwey", "lat": "-37.9", "long": "145.33333"}, {"city": "Upper Coomera", "lat": "-27.87683", "long": "153.28572"}, {"city": "Ulverstone", "lat": "-41.16026", "long": "146.18242"}, {"city": "Ulladulla", "lat": "-35.35906", "long": "150.47247"}, {"city": "Tumut", "lat": "-35.30642", "long": "148.21818"}, {"city": "Tullamarine", "lat": "-37.70128", "long": "144.881"}, {"city": "Truganina", "lat": "-37.81667", "long": "144.75"}, {"city": "Traralgon", "lat": "-38.19528", "long": "146.5415"}, {"city": "Townsville", "lat": "-19.26639", "long": "146.80569"}, {"city": "Torquay", "lat": "-25.28496", "long": "152.87886"}, {"city": "Toowoomba", "lat": "-27.56056", "long": "151.95386"}, {"city": "Toorak", "lat": "-37.84165", "long": "145.01438"}, {"city": "Toongabbie", "lat": "-33.78333", "long": "150.95"}, {"city": "Thornbury", "lat": "-37.75819", "long": "145.00583"}, {"city": "Thomastown", "lat": "-37.68333", "long": "145.01667"}, {"city": "Tewantin", "lat": "-26.39104", "long": "153.03432"}, {"city": "Templestowe Lower", "lat": "-37.76667", "long": "145.11667"}, {"city": "Tarragindi", "lat": "-27.52713", "long": "153.04556"}, {"city": "Tarneit", "lat": "-37.83634", "long": "144.65952"}, {"city": "Taree", "lat": "-31.91099", "long": "152.45387"}, {"city": "Tamworth", "lat": "-31.09048", "long": "150.92905"}, {"city": "Sydney", "lat": "-33.86785", "long": "151.20732"}, {"city": "Sydenham", "lat": "-37.7", "long": "144.76667"}, {"city": "Swan Hill", "lat": "-35.33781", "long": "143.5544"}, {"city": "Surrey Hills", "lat": "-37.81667", "long": "145.1"}, {"city": "Surfers Paradise", "lat": "-28.00274", "long": "153.42999"}, {"city": "Sunnybank", "lat": "-27.58003", "long": "153.06064"}, {"city": "Sunbury", "lat": "-37.57742", "long": "144.72607"}, {"city": "Strathpine", "lat": "-27.30414", "long": "152.98977"}, {"city": "Strathfield", "lat": "-33.88096", "long": "151.07986"}, {"city": "Port Stephens", "lat": "-32.73705", "long": "152.04877"}, {"city": "Stawell", "lat": "-37.05632", "long": "142.78088"}, {"city": "Springvale South", "lat": "-37.96667", "long": "145.15"}, {"city": "Springvale", "lat": "-37.94853", "long": "145.15274"}, {"city": "Southport", "lat": "-27.96724", "long": "153.39796"}, {"city": "South Melbourne", "lat": "-37.83333", "long": "144.96667"}, {"city": "South Grafton", "lat": "-29.7076", "long": "152.92627"}, {"city": "Somerville", "lat": "-38.21667", "long": "145.16667"}, {"city": "Slacks Creek", "lat": "-27.65", "long": "153.15"}, {"city": "Singleton", "lat": "-32.56742", "long": "151.16603"}, {"city": "Shepparton", "lat": "-36.38047", "long": "145.39867"}, {"city": "Sebastopol", "lat": "-37.58532", "long": "143.83953"}, {"city": "Seaford", "lat": "-38.1", "long": "145.13333"}, {"city": "Scoresby", "lat": "-37.9", "long": "145.23333"}, {"city": "Sale", "lat": "-38.11095", "long": "147.06802"}, {"city": "Saint Kilda", "lat": "-37.8676", "long": "144.98099"}, {"city": "Saint Albans", "lat": "-37.73333", "long": "144.8"}, {"city": "Rye", "lat": "-38.38528", "long": "144.81221"}, {"city": "Rutherford", "lat": "-32.71667", "long": "151.53333"}, {"city": "Rowville", "lat": "-37.93333", "long": "145.23333"}, {"city": "Rosebud", "lat": "-38.35542", "long": "144.9068"}, {"city": "Rosanna", "lat": "-37.75", "long": "145.06667"}, {"city": "Roma", "lat": "-26.56741", "long": "148.78751"}, {"city": "Rockhampton", "lat": "-23.38032", "long": "150.50595"}, {"city": "Riverstone", "lat": "-33.68333", "long": "150.86667"}, {"city": "Ringwood East", "lat": "-37.81667", "long": "145.25"}, {"city": "Richmond", "lat": "-37.81819", "long": "145.00176"}, {"city": "Richmond", "lat": "-33.59956", "long": "150.75142"}, {"city": "Reservoir", "lat": "-37.71667", "long": "145"}, {"city": "Redlynch", "lat": "-16.9254", "long": "145.69559"}, {"city": "Red Hill", "lat": "-20.31667", "long": "148.5"}, {"city": "Redfern", "lat": "-33.89279", "long": "151.20415"}, {"city": "Rathmines", "lat": "-33.03773", "long": "151.58443"}, {"city": "Queanbeyan", "lat": "-35.35493", "long": "149.232"}, {"city": "Quakers Hill", "lat": "-33.73333", "long": "150.88333"}, {"city": "Pymble", "lat": "-33.74386", "long": "151.14188"}, {"city": "Preston", "lat": "-37.75", "long": "145.01667"}, {"city": "Port Melbourne", "lat": "-37.83961", "long": "144.94228"}, {"city": "Port Macquarie", "lat": "-31.43084", "long": "152.90894"}, {"city": "Portland", "lat": "-38.3462", "long": "141.60257"}, {"city": "Point Cook", "lat": "-37.91482", "long": "144.75088"}, {"city": "Penshurst", "lat": "-33.96667", "long": "151.08333"}, {"city": "Penrith", "lat": "-33.75", "long": "150.7"}, {"city": "Pennant Hills", "lat": "-33.73783", "long": "151.07216"}, {"city": "Pascoe Vale", "lat": "-37.73333", "long": "144.93333"}, {"city": "Parkville", "lat": "-37.78333", "long": "144.95"}, {"city": "Parkes", "lat": "-33.1372", "long": "148.1759"}, {"city": "Parkdale", "lat": "-37.99187", "long": "145.08128"}, {"city": "Palm Beach", "lat": "-28.11694", "long": "153.46584"}, {"city": "Pakenham South", "lat": "-38.13333", "long": "145.51667"}, {"city": "Ormond", "lat": "-37.9", "long": "145.03333"}, {"city": "Orange", "lat": "-33.28397", "long": "149.10018"}, {"city": "Oatley", "lat": "-33.98004", "long": "151.07201"}, {"city": "Nunawading", "lat": "-37.82043", "long": "145.17308"}, {"city": "Nowra", "lat": "-34.88422", "long": "150.60036"}, {"city": "North Wonthaggi", "lat": "-38.57769", "long": "145.59302"}, {"city": "North Sydney", "lat": "-33.839", "long": "151.2072"}, {"city": "North Melbourne", "lat": "-37.79798", "long": "144.94512"}, {"city": "Northmead", "lat": "-33.78378", "long": "150.99858"}, {"city": "North Fitzroy", "lat": "-37.78862", "long": "144.97885"}, {"city": "Northcote", "lat": "-37.76667", "long": "145"}, {"city": "Noosaville", "lat": "-26.4", "long": "153.06667"}, {"city": "Noble Park", "lat": "-37.96667", "long": "145.16667"}, {"city": "Newtown", "lat": "-33.89835", "long": "151.17754"}, {"city": "Newport", "lat": "-37.84427", "long": "144.88483"}, {"city": "Newport", "lat": "-33.65639", "long": "151.31401"}, {"city": "New Norfolk", "lat": "-42.78261", "long": "147.0587"}, {"city": "Newnham", "lat": "-41.38969", "long": "147.11397"}, {"city": "Newcastle", "lat": "-32.92953", "long": "151.7801"}, {"city": "Nerang", "lat": "-27.98941", "long": "153.33633"}, {"city": "Nelson Bay", "lat": "-32.72043", "long": "152.14398"}, {"city": "Narre Warren North", "lat": "-37.98333", "long": "145.31667"}, {"city": "Narre Warren", "lat": "-38.03333", "long": "145.3"}, {"city": "Narrabri", "lat": "-30.32488", "long": "149.78266"}, {"city": "Narrabeen", "lat": "-33.71277", "long": "151.29736"}, {"city": "Narellan", "lat": "-34.04338", "long": "150.73236"}, {"city": "Narara", "lat": "-33.39593", "long": "151.33527"}, {"city": "Narangba", "lat": "-27.20338", "long": "152.95923"}, {"city": "Naracoorte", "lat": "-36.95785", "long": "140.7383"}, {"city": "Nambucca Heads", "lat": "-30.64318", "long": "153.00884"}, {"city": "Nambucca", "lat": "-30.63333", "long": "152.98333"}, {"city": "Nambour", "lat": "-26.62613", "long": "152.95941"}, {"city": "Muswellbrook", "lat": "-32.26118", "long": "150.89009"}, {"city": "Murwillumbah", "lat": "-28.32732", "long": "153.39339"}, {"city": "Murrumbeena", "lat": "-37.9", "long": "145.06667"}, {"city": "Mulgrave", "lat": "-37.92845", "long": "145.17708"}, {"city": "Mudgee", "lat": "-32.59426", "long": "149.5871"}, {"city": "Mount Waverley", "lat": "-37.87709", "long": "145.12939"}, {"city": "Mount Martha", "lat": "-38.26667", "long": "145.01667"}, {"city": "Mount Gambier", "lat": "-37.8318", "long": "140.77919"}, {"city": "Mount Evelyn", "lat": "-37.78333", "long": "145.38333"}, {"city": "Mount Eliza", "lat": "-38.18333", "long": "145.08333"}, {"city": "Mount Druitt", "lat": "-33.76667", "long": "150.81667"}, {"city": "Mount Colah", "lat": "-33.68333", "long": "151.11667"}, {"city": "Moss Vale", "lat": "-34.55374", "long": "150.37115"}, {"city": "Mosman", "lat": "-33.83902", "long": "151.23956"}, {"city": "Morwell", "lat": "-38.23476", "long": "146.39499"}, {"city": "Mortdale", "lat": "-33.96897", "long": "151.07231"}, {"city": "Mornington", "lat": "-38.21792", "long": "145.03876"}, {"city": "Moree", "lat": "-29.46278", "long": "149.84157"}, {"city": "Mordialloc", "lat": "-38", "long": "145.08333"}, {"city": "Morayfield", "lat": "-27.10876", "long": "152.94907"}, {"city": "Moorabbin", "lat": "-37.94146", "long": "145.05779"}, {"city": "Moonee Ponds", "lat": "-37.76667", "long": "144.91667"}, {"city": "Moonah", "lat": "-42.84617", "long": "147.30228"}, {"city": "Mooloolaba", "lat": "-26.68164", "long": "153.11925"}, {"city": "Montrose", "lat": "-37.81667", "long": "145.35"}, {"city": "Montmorency", "lat": "-37.71667", "long": "145.11667"}, {"city": "Moe", "lat": "-38.17828", "long": "146.26099"}, {"city": "Mittagong", "lat": "-34.45002", "long": "150.44572"}, {"city": "Mitcham", "lat": "-37.81667", "long": "145.2"}, {"city": "Miranda", "lat": "-34.03857", "long": "151.10005"}, {"city": "Mill Park", "lat": "-37.66667", "long": "145.06667"}, {"city": "Millicent", "lat": "-37.59389", "long": "140.34947"}, {"city": "Mildura", "lat": "-34.18551", "long": "142.16251"}, {"city": "Merrylands", "lat": "-33.83333", "long": "150.98333"}, {"city": "Merimbula", "lat": "-36.88901", "long": "149.90961"}, {"city": "Mernda", "lat": "-37.60075", "long": "145.09555"}, {"city": "Mentone", "lat": "-37.98333", "long": "145.06667"}, {"city": "Menai", "lat": "-34.01667", "long": "151.01667"}, {"city": "Melton South", "lat": "-37.70773", "long": "144.57493"}, {"city": "Melton", "lat": "-37.68339", "long": "144.58543"}, {"city": "Melbourne", "lat": "-37.814", "long": "144.96332"}, {"city": "Medowie", "lat": "-32.7415", "long": "151.8676"}, {"city": "McKinnon", "lat": "-37.91667", "long": "145.05"}, {"city": "Matraville", "lat": "-33.96344", "long": "151.23195"}, {"city": "Mascot", "lat": "-33.92598", "long": "151.19347"}, {"city": "Maryborough", "lat": "-37.04562", "long": "143.73923"}, {"city": "Maryborough", "lat": "-25.54073", "long": "152.70493"}, {"city": "Marrickville", "lat": "-33.90741", "long": "151.15546"}, {"city": "Maroubra", "lat": "-33.95", "long": "151.23333"}, {"city": "Maribyrnong", "lat": "-37.77241", "long": "144.88435"}, {"city": "Margate", "lat": "-27.24761", "long": "153.09809"}, {"city": "Mareeba", "lat": "-16.99096", "long": "145.42306"}, {"city": "Manly", "lat": "-33.79798", "long": "151.28826"}, {"city": "Maitland", "lat": "-32.73308", "long": "151.5574"}, {"city": "Macleod", "lat": "-37.73333", "long": "145.06667"}, {"city": "Mackay", "lat": "-21.15345", "long": "149.16554"}, {"city": "Lysterfield", "lat": "-37.93333", "long": "145.3"}, {"city": "Long Jetty", "lat": "-33.35917", "long": "151.48834"}, {"city": "Liverpool", "lat": "-33.91938", "long": "150.92588"}, {"city": "Lithgow", "lat": "-33.4845", "long": "150.14903"}, {"city": "Lismore", "lat": "-28.81354", "long": "153.2773"}, {"city": "Lisarow", "lat": "-33.38333", "long": "151.36667"}, {"city": "Lindisfarne", "lat": "-42.84837", "long": "147.36192"}, {"city": "Lindfield", "lat": "-33.78333", "long": "151.16667"}, {"city": "Lilydale", "lat": "-37.75", "long": "145.35"}, {"city": "Lidcombe", "lat": "-33.86436", "long": "151.0397"}, {"city": "Leumeah", "lat": "-34.05", "long": "150.83333"}, {"city": "Leopold", "lat": "-38.19001", "long": "144.46825"}, {"city": "Leichhardt", "lat": "-33.88341", "long": "151.15625"}, {"city": "Leeton", "lat": "-34.55105", "long": "146.40483"}, {"city": "Lavington", "lat": "-36.03976", "long": "146.93958"}, {"city": "Launceston", "lat": "-41.43876", "long": "147.13467"}, {"city": "Lara", "lat": "-38.02388", "long": "144.40617"}, {"city": "Langwarrin", "lat": "-38.16667", "long": "145.16667"}, {"city": "Lalor", "lat": "-37.66667", "long": "145.01667"}, {"city": "Lakes Entrance", "lat": "-37.86679", "long": "148.00159"}, {"city": "Lakemba", "lat": "-33.91972", "long": "151.07592"}, {"city": "Lake Albert", "lat": "-35.16667", "long": "147.38333"}, {"city": "Kyabram", "lat": "-36.31335", "long": "145.05035"}, {"city": "Kurri Kurri", "lat": "-32.81933", "long": "151.47908"}, {"city": "Kingston", "lat": "-42.97638", "long": "147.30351"}, {"city": "Kingscliff", "lat": "-28.25983", "long": "153.57816"}, {"city": "Kingaroy", "lat": "-26.53994", "long": "151.8373"}, {"city": "Kilsyth", "lat": "-37.8", "long": "145.31667"}, {"city": "Kiama", "lat": "-34.66828", "long": "150.85219"}, {"city": "Keysborough", "lat": "-37.99116", "long": "145.17385"}, {"city": "Kew", "lat": "-37.80639", "long": "145.03086"}, {"city": "Kenthurst", "lat": "-33.65527", "long": "151.00503"}, {"city": "Kensington", "lat": "-33.92019", "long": "151.22241"}, {"city": "Kensington", "lat": "-37.79188", "long": "144.93114"}, {"city": "Kennington", "lat": "-36.77128", "long": "144.30298"}, {"city": "Kempsey", "lat": "-31.07898", "long": "152.83093"}, {"city": "Kelso", "lat": "-33.41667", "long": "149.6"}, {"city": "Keilor", "lat": "-37.71667", "long": "144.83333"}, {"city": "Katoomba", "lat": "-33.71977", "long": "150.30739"}, {"city": "Kangaroo Flat", "lat": "-36.8", "long": "144.25"}, {"city": "Jannali", "lat": "-34.01643", "long": "151.06065"}, {"city": "Inverell", "lat": "-29.77403", "long": "151.11166"}, {"city": "Innisfail", "lat": "-17.52209", "long": "146.03102"}, {"city": "Ingleburn", "lat": "-34", "long": "150.86667"}, {"city": "Ingham", "lat": "-18.64552", "long": "146.16248"}, {"city": "Hughesdale", "lat": "-37.9", "long": "145.08333"}, {"city": "Horsham", "lat": "-36.71131", "long": "142.19981"}, {"city": "Hornsby", "lat": "-33.70244", "long": "151.09931"}, {"city": "Hobart", "lat": "-42.87936", "long": "147.32941"}, {"city": "Highett", "lat": "-37.95", "long": "145.05"}, {"city": "Helensburgh", "lat": "-34.17836", "long": "150.99522"}, {"city": "Heidelberg West", "lat": "-37.73922", "long": "145.04034"}, {"city": "Heidelberg", "lat": "-37.75", "long": "145.06667"}, {"city": "Heathmont", "lat": "-37.83333", "long": "145.25"}, {"city": "Heathcote", "lat": "-34.0841", "long": "151.01305"}, {"city": "Healesville", "lat": "-37.65395", "long": "145.51718"}, {"city": "Hawthorn South", "lat": "-37.8329", "long": "145.0367"}, {"city": "Hawthorn", "lat": "-37.81992", "long": "145.0358"}, {"city": "Hastings", "lat": "-38.3", "long": "145.18333"}, {"city": "Hampton Park", "lat": "-38.03333", "long": "145.25"}, {"city": "Hampton", "lat": "-37.95", "long": "145"}, {"city": "Hamilton", "lat": "-37.74425", "long": "142.02202"}, {"city": "Hallam", "lat": "-38.01667", "long": "145.26667"}, {"city": "Haberfield", "lat": "-33.88296", "long": "151.14389"}, {"city": "Gympie", "lat": "-26.18979", "long": "152.66499"}, {"city": "Gunnedah", "lat": "-30.98065", "long": "150.25838"}, {"city": "Grovedale", "lat": "-38.2", "long": "144.35"}, {"city": "Griffith", "lat": "-34.28853", "long": "146.05093"}, {"city": "Greenvale", "lat": "-37.63333", "long": "144.86667"}, {"city": "Greensborough", "lat": "-37.70462", "long": "145.10302"}, {"city": "Granville", "lat": "-33.8406", "long": "151.00748"}, {"city": "Grafton", "lat": "-29.68104", "long": "152.93394"}, {"city": "Goulburn", "lat": "-34.75155", "long": "149.72086"}, {"city": "Gorokan", "lat": "-33.25764", "long": "151.5097"}, {"city": "Gordon", "lat": "-33.75535", "long": "151.15115"}, {"city": "Goonellabah", "lat": "-28.81667", "long": "153.31667"}, {"city": "Goondiwindi", "lat": "-28.54709", "long": "150.30546"}, {"city": "Goodna", "lat": "-27.61046", "long": "152.89896"}, {"city": "Gold Coast", "lat": "-28.00029", "long": "153.43088"}, {"city": "Glenroy", "lat": "-37.7", "long": "144.93333"}, {"city": "Glenorchy", "lat": "-42.83343", "long": "147.27593"}, {"city": "Glen Innes", "lat": "-29.73485", "long": "151.7385"}, {"city": "Glenhaven", "lat": "-33.7", "long": "151"}, {"city": "Glenfield", "lat": "-33.96667", "long": "150.9"}, {"city": "Glenferrie", "lat": "-37.83333", "long": "145.05"}, {"city": "Glenbrook", "lat": "-33.76667", "long": "150.61667"}, {"city": "Gladstone", "lat": "-23.84852", "long": "151.25775"}, {"city": "Geelong West", "lat": "-38.13888", "long": "144.34842"}, {"city": "Geelong", "lat": "-38.14711", "long": "144.36069"}, {"city": "Gatton", "lat": "-27.55873", "long": "152.27618"}, {"city": "Frankston East", "lat": "-38.13333", "long": "145.13333"}, {"city": "Frankston", "lat": "-38.14458", "long": "145.12291"}, {"city": "Forster", "lat": "-32.18136", "long": "152.51715"}, {"city": "Forest Hill", "lat": "-37.83333", "long": "145.18333"}, {"city": "Footscray", "lat": "-37.8", "long": "144.9"}, {"city": "Fitzroy", "lat": "-37.79839", "long": "144.97833"}, {"city": "Fawkner", "lat": "-37.71667", "long": "144.96667"}, {"city": "Fairfield", "lat": "-33.86667", "long": "150.95"}, {"city": "Essendon", "lat": "-37.74981", "long": "144.9109"}, {"city": "Epping", "lat": "-37.65", "long": "145.03333"}, {"city": "Epping", "lat": "-33.77271", "long": "151.08184"}, {"city": "Engadine", "lat": "-34.06564", "long": "151.01266"}, {"city": "Emerald", "lat": "-37.93167", "long": "145.44093"}, {"city": "Emerald", "lat": "-23.52296", "long": "148.15784"}, {"city": "Eltham North", "lat": "-37.7", "long": "145.15"}, {"city": "Eltham", "lat": "-37.73333", "long": "145.15"}, {"city": "Eight Mile Plains", "lat": "-27.58333", "long": "153.1"}, {"city": "Edithvale", "lat": "-38.03724", "long": "145.10974"}, {"city": "Echuca", "lat": "-36.14057", "long": "144.75185"}, {"city": "Eastwood", "lat": "-33.79176", "long": "151.08057"}, {"city": "East Maitland", "lat": "-32.75", "long": "151.58333"}, {"city": "East Ballina", "lat": "-28.85709", "long": "153.58736"}, {"city": "Earlwood", "lat": "-33.9209", "long": "151.12506"}, {"city": "Dubbo", "lat": "-32.24295", "long": "148.60484"}, {"city": "Dromana", "lat": "-38.33375", "long": "144.96458"}, {"city": "Doreen", "lat": "-37.6", "long": "145.15"}, {"city": "Doonside", "lat": "-33.76667", "long": "150.86667"}, {"city": "Donvale", "lat": "-37.7891", "long": "145.17488"}, {"city": "Doncaster East", "lat": "-37.78761", "long": "145.14888"}, {"city": "Doncaster", "lat": "-37.78828", "long": "145.12373"}, {"city": "Dingley Village", "lat": "-37.9827", "long": "145.1342"}, {"city": "Diamond Creek", "lat": "-37.66667", "long": "145.15"}, {"city": "Devonport", "lat": "-41.17695", "long": "146.35152"}, {"city": "Derrimut", "lat": "-37.79238", "long": "144.76994"}, {"city": "Deniliquin", "lat": "-35.53245", "long": "144.95364"}, {"city": "Deer Park", "lat": "-37.76722", "long": "144.76657"}, {"city": "Deception Bay", "lat": "-27.19354", "long": "153.02631"}, {"city": "Darlinghurst", "lat": "-33.87939", "long": "151.21925"}, {"city": "Dapto", "lat": "-34.50386", "long": "150.79416"}, {"city": "Dandenong", "lat": "-37.98333", "long": "145.2"}, {"city": "Dalby", "lat": "-27.18169", "long": "151.26205"}, {"city": "Croydon North", "lat": "-37.76741", "long": "145.29073"}, {"city": "Croydon", "lat": "-37.8", "long": "145.28333"}, {"city": "Croydon", "lat": "-33.88333", "long": "151.11667"}, {"city": "Cronulla", "lat": "-34.06251", "long": "151.14961"}, {"city": "Cranbourne", "lat": "-38.11342", "long": "145.28326"}, {"city": "Craigieburn", "lat": "-37.6", "long": "144.95"}, {"city": "Cowra", "lat": "-33.83554", "long": "148.69663"}, {"city": "Corrimal", "lat": "-34.37864", "long": "150.90356"}, {"city": "Corowa", "lat": "-35.99704", "long": "146.38552"}, {"city": "Coorparoo", "lat": "-27.49325", "long": "153.05826"}, {"city": "Cooma", "lat": "-36.23517", "long": "149.12408"}, {"city": "Coolum Beach", "lat": "-26.5283", "long": "153.08809"}, {"city": "Coogee", "lat": "-33.9205", "long": "151.25522"}, {"city": "Concord", "lat": "-33.84722", "long": "151.10381"}, {"city": "Collingwood", "lat": "-37.80253", "long": "144.98872"}, {"city": "Colac", "lat": "-38.339", "long": "143.58489"}, {"city": "Coffs Harbour", "lat": "-30.29626", "long": "153.11351"}, {"city": "Coburg", "lat": "-37.75", "long": "144.96667"}, {"city": "Clifton Springs", "lat": "-38.1567", "long": "144.5551"}, {"city": "Clifton Hill", "lat": "-37.79798", "long": "144.99533"}, {"city": "Cleveland", "lat": "-27.52677", "long": "153.26516"}, {"city": "Clayton South", "lat": "-37.93333", "long": "145.11667"}, {"city": "Clayton", "lat": "-37.91667", "long": "145.11667"}, {"city": "Clarinda", "lat": "-37.93333", "long": "145.11667"}, {"city": "Claremont", "lat": "-42.78333", "long": "147.25"}, {"city": "Wollongong", "lat": "-34.424", "long": "150.89345"}, {"city": "Chipping Norton", "lat": "-33.91801", "long": "150.95927"}, {"city": "Chelsea Heights", "lat": "-38.03333", "long": "145.13333"}, {"city": "Chelsea", "lat": "-38.05", "long": "145.11667"}, {"city": "Chatswood", "lat": "-33.8", "long": "151.18333"}, {"city": "Charters Towers", "lat": "-20.07671", "long": "146.26353"}, {"city": "Charlestown", "lat": "-32.96828", "long": "151.69318"}, {"city": "Cessnock", "lat": "-32.83211", "long": "151.35623"}, {"city": "Caulfield North", "lat": "-37.8739", "long": "145.02485"}, {"city": "Castlemaine", "lat": "-37.06709", "long": "144.21684"}, {"city": "Castle Hill", "lat": "-33.73333", "long": "151"}, {"city": "Casino", "lat": "-28.85819", "long": "153.04748"}, {"city": "Carrum Downs", "lat": "-38.09968", "long": "145.17248"}, {"city": "Carnegie", "lat": "-37.89359", "long": "145.05534"}, {"city": "Carlton North", "lat": "-37.78818", "long": "144.97014"}, {"city": "Carlton", "lat": "-37.8", "long": "144.96667"}, {"city": "Carlingford", "lat": "-33.78269", "long": "151.04888"}, {"city": "Caringbah", "lat": "-34.03534", "long": "151.12468"}, {"city": "Canberra", "lat": "-35.28346", "long": "149.12807"}, {"city": "Camperdown", "lat": "-33.88965", "long": "151.17642"}, {"city": "Campbelltown", "lat": "-34.06667", "long": "150.81667"}, {"city": "Campbellfield", "lat": "-37.66386", "long": "144.95953"}, {"city": "Camberwell", "lat": "-37.84205", "long": "145.0694"}, {"city": "Caloundra", "lat": "-26.80346", "long": "153.12195"}, {"city": "Cairns", "lat": "-16.92366", "long": "145.76613"}, {"city": "Caboolture", "lat": "-27.08465", "long": "152.9511"}, {"city": "Byron Bay", "lat": "-28.64989", "long": "153.61246"}, {"city": "Burwood East", "lat": "-37.85", "long": "145.15"}, {"city": "Burwood", "lat": "-33.88333", "long": "151.1"}, {"city": "Burpengary", "lat": "-27.15746", "long": "152.95758"}, {"city": "Burnie", "lat": "-41.05584", "long": "145.90375"}, {"city": "Bundamba", "lat": "-27.60947", "long": "152.81133"}, {"city": "Bundaberg", "lat": "-24.86621", "long": "152.3479"}, {"city": "Bulli", "lat": "-34.33834", "long": "150.91347"}, {"city": "Bulleen", "lat": "-37.76667", "long": "145.08333"}, {"city": "Buderim", "lat": "-26.68443", "long": "153.05705"}, {"city": "Brunswick West", "lat": "-37.76461", "long": "144.94383"}, {"city": "Brunswick East", "lat": "-37.77255", "long": "144.97241"}, {"city": "Brunswick", "lat": "-37.76667", "long": "144.96667"}, {"city": "Broken Hill", "lat": "-31.9652", "long": "141.4512"}, {"city": "Broadmeadows", "lat": "-37.68015", "long": "144.91877"}, {"city": "Brisbane", "lat": "-27.46794", "long": "153.02809"}, {"city": "Brighton", "lat": "-37.90561", "long": "145.00279"}, {"city": "Brighton", "lat": "-27.29582", "long": "153.05721"}, {"city": "Bridgewater", "lat": "-42.73719", "long": "147.22784"}, {"city": "Box Hill", "lat": "-37.81887", "long": "145.12545"}, {"city": "Bowral", "lat": "-34.4775", "long": "150.4204"}, {"city": "Bowen", "lat": "-20.01367", "long": "148.24754"}, {"city": "Botany", "lat": "-33.94599", "long": "151.19591"}, {"city": "Boronia", "lat": "-37.86667", "long": "145.28333"}, {"city": "Bongaree", "lat": "-27.08367", "long": "153.15942"}, {"city": "Bomaderry", "lat": "-34.84967", "long": "150.61093"}, {"city": "Blaxland", "lat": "-33.75", "long": "150.6"}, {"city": "Blackwater", "lat": "-23.58351", "long": "148.87912"}, {"city": "Blacktown", "lat": "-33.76667", "long": "150.91667"}, {"city": "Blackmans Bay", "lat": "-43.00311", "long": "147.31694"}, {"city": "Biloela", "lat": "-24.39589", "long": "150.51504"}, {"city": "Berwick", "lat": "-38.03333", "long": "145.35"}, {"city": "Berkeley Vale", "lat": "-33.35", "long": "151.43333"}, {"city": "Berkeley", "lat": "-34.48333", "long": "150.85"}, {"city": "Bentleigh", "lat": "-37.91806", "long": "145.03544"}, {"city": "Bendigo", "lat": "-36.75818", "long": "144.28024"}, {"city": "Benalla", "lat": "-36.55113", "long": "145.98425"}, {"city": "Beenleigh", "lat": "-27.71137", "long": "153.2029"}, {"city": "Beaumaris", "lat": "-37.98534", "long": "145.03361"}, {"city": "Bayswater", "lat": "-37.85", "long": "145.26667"}, {"city": "Baulkham Hills", "lat": "-33.75881", "long": "150.99292"}, {"city": "Bathurst", "lat": "-33.41665", "long": "149.5806"}, {"city": "Batemans Bay", "lat": "-35.70658", "long": "150.17541"}, {"city": "Banora Point", "lat": "-28.21298", "long": "153.53634"}, {"city": "Bankstown", "lat": "-33.91667", "long": "151.03333"}, {"city": "Balwyn", "lat": "-37.81667", "long": "145.06667"}, {"city": "Balmain", "lat": "-33.85481", "long": "151.1833"}, {"city": "Ballina", "lat": "-28.86414", "long": "153.56541"}, {"city": "Ballarat", "lat": "-37.56622", "long": "143.84957"}, {"city": "Balgowlah", "lat": "-33.79494", "long": "151.2572"}, {"city": "Balaclava", "lat": "-37.86667", "long": "145"}, {"city": "Bairnsdale", "lat": "-37.82289", "long": "147.61041"}, {"city": "Bacchus Marsh", "lat": "-37.67268", "long": "144.43829"}, {"city": "Ayr", "lat": "-19.57393", "long": "147.40666"}, {"city": "Auburn", "lat": "-33.85", "long": "151.03333"}, {"city": "Atherton", "lat": "-17.26864", "long": "145.47522"}, {"city": "Aspendale", "lat": "-38.02913", "long": "145.10266"}, {"city": "Ashfield", "lat": "-33.88834", "long": "151.12274"}, {"city": "Ashburton", "lat": "-37.86667", "long": "145.08333"}, {"city": "Ascot Vale", "lat": "-37.77988", "long": "144.92276"}, {"city": "Artarmon", "lat": "-33.81667", "long": "151.18333"}, {"city": "Armidale", "lat": "-30.50123", "long": "151.66553"}, {"city": "Ararat", "lat": "-37.28542", "long": "142.92728"}, {"city": "Altona", "lat": "-37.86964", "long": "144.83036"}, {"city": "Albury", "lat": "-36.07482", "long": "146.92401"}, {"city": "Albert Park", "lat": "-37.83333", "long": "145"}, {"city": "Raymond Terrace", "lat": "-32.75", "long": "151.75"}, {"city": "Gymea", "lat": "-34.03637", "long": "151.08528"}, {"city": "Kirrawee", "lat": "-34.03831", "long": "151.06903"}, {"city": "Gymea Bay", "lat": "-34.05209", "long": "151.08795"}, {"city": "Brighton-Le-Sands", "lat": "-33.96009", "long": "151.1511"}, {"city": "Blakehurst", "lat": "-33.99152", "long": "151.10876"}, {"city": "Lugarno", "lat": "-33.98267", "long": "151.04184"}, {"city": "New Town", "lat": "-42.85758", "long": "147.30869"}, {"city": "Sandy Bay", "lat": "-42.89449", "long": "147.32439"}, {"city": "Fairy Meadow", "lat": "-34.39303", "long": "150.89275"}, {"city": "South Brisbane", "lat": "-27.48034", "long": "153.02049"}, {"city": "Scarborough", "lat": "-27.20118", "long": "153.10939"}, {"city": "Bonbeach", "lat": "-38.06528", "long": "145.12278"}, {"city": "Cheltenham", "lat": "-37.96944", "long": "145.04806"}, {"city": "Bellevue Hill", "lat": "-33.87899", "long": "151.25101"}, {"city": "Paddington", "lat": "-33.88419", "long": "151.23151"}, {"city": "Lilyfield", "lat": "-33.87499", "long": "151.1653"}, {"city": "Drummoyne", "lat": "-33.85237", "long": "151.15491"}, {"city": "Greenwich", "lat": "-33.83954", "long": "151.183"}, {"city": "Hunters Hill", "lat": "-33.83432", "long": "151.1459"}, {"city": "Cammeray", "lat": "-33.82132", "long": "151.21609"}, {"city": "Neutral Bay", "lat": "-33.83784", "long": "151.2175"}, {"city": "Randwick", "lat": "-33.91439", "long": "151.24895"}, {"city": "Bronte", "lat": "-33.90198", "long": "151.26556"}, {"city": "Bondi", "lat": "-33.89429", "long": "151.26444"}, {"city": "Gladesville", "lat": "-33.83333", "long": "151.13333"}, {"city": "Forestville", "lat": "-33.76667", "long": "151.20833"}, {"city": "Dee Why", "lat": "-33.7511", "long": "151.28886"}, {"city": "Umina", "lat": "-33.52314", "long": "151.31325"}, {"city": "Airport West", "lat": "-37.7247", "long": "144.88126"}, {"city": "Gladstone Park", "lat": "-37.68742", "long": "144.88675"}, {"city": "Palmerston", "lat": "-12.48602", "long": "130.9833"}, {"city": "Hervey Bay", "lat": "-25.28762", "long": "152.76936"}, {"city": "Moranbah", "lat": "-22.00163", "long": "148.04661"}, {"city": "Kaleen", "lat": "-35.21814", "long": "149.10516"}, {"city": "Karratha", "lat": "-20.73765", "long": "116.84629"}, {"city": "Hillarys", "lat": "-31.80698", "long": "115.74045"}, {"city": "Kingsford", "lat": "-33.92399", "long": "151.22749"}, {"city": "Klemzig", "lat": "-34.87928", "long": "138.63562"}, {"city": "Maidstone", "lat": "-37.78035", "long": "144.87353"}, {"city": "Woollahra", "lat": "-33.8878", "long": "151.23681"}, {"city": "Corlette", "lat": "-32.72014", "long": "152.10846"}, {"city": "Howrah", "lat": "-42.88728", "long": "147.40554"}, {"city": "North Narrabeen", "lat": "-33.70935", "long": "151.29607"}, {"city": "Joondalup", "lat": "-31.74445", "long": "115.76835"}, {"city": "Como", "lat": "-31.99119", "long": "115.86336"}, {"city": "Arncliffe", "lat": "-33.93627", "long": "151.14819"}, {"city": "East Lismore", "lat": "-28.82591", "long": "153.2888"}, {"city": "Mindarie", "lat": "-31.68932", "long": "115.70698"}, {"city": "Clarkson", "lat": "-31.68282", "long": "115.7247"}, {"city": "Kinross", "lat": "-31.71868", "long": "115.73839"}, {"city": "Currambine", "lat": "-31.73306", "long": "115.74766"}, {"city": "Heathridge", "lat": "-31.76244", "long": "115.75895"}, {"city": "Paradise Point", "lat": "-27.88663", "long": "153.3933"}, {"city": "Freshwater", "lat": "-33.77867", "long": "151.28569"}, {"city": "Taringa", "lat": "-27.49061", "long": "152.97861"}, {"city": "Inala", "lat": "-27.59715", "long": "152.97432"}, {"city": "Mount Lawley", "lat": "-31.93439", "long": "115.8716"}, {"city": "Paradise", "lat": "-34.87361", "long": "138.66896"}, {"city": "Athelstone", "lat": "-34.87019", "long": "138.6999"}, {"city": "Wooloowin", "lat": "-27.42244", "long": "153.04204"}, {"city": "Zillmere", "lat": "-27.35591", "long": "153.04453"}, {"city": "Taigum", "lat": "-27.34265", "long": "153.04444"}, {"city": "Bracken Ridge", "lat": "-27.3171", "long": "153.03097"}, {"city": "Windsor", "lat": "-27.43631", "long": "153.02882"}, {"city": "Bridegman Downs", "lat": "-27.35538", "long": "152.99432"}, {"city": "Canterbury", "lat": "-33.91192", "long": "151.11862"}, {"city": "Tamborine Mountain", "lat": "-27.96954", "long": "153.19937"}, {"city": "North Ryde", "lat": "-33.79677", "long": "151.12436"}, {"city": "Stirling", "lat": "-31.88343", "long": "115.8099"}, {"city": "Caroline Springs", "lat": "-37.74124", "long": "144.73631"}, {"city": "Hoppers Crossing", "lat": "-37.88264", "long": "144.7003"}, {"city": "Rouse Hill", "lat": "-33.68207", "long": "150.9154"}, {"city": "Logan City", "lat": "-27.63917", "long": "153.10944"}, {"city": "Carindale", "lat": "-27.50578", "long": "153.10236"}, {"city": "Parramatta", "lat": "-33.8178", "long": "151.00348"}, {"city": "Ferntree Gully", "lat": "-37.88461", "long": "145.29539"}, {"city": "Phillip Island", "lat": "-38.48349", "long": "145.23102"}, {"city": "Springwood", "lat": "-27.61183", "long": "153.12899"}, {"city": "Adelaide Hills", "lat": "-34.91119", "long": "138.70735"}, {"city": "Canning Vale", "lat": "-32.05799", "long": "115.91814"}, {"city": "Varsity Lakes", "lat": "-28.0894", "long": "153.4122"}, {"city": "Oxenford", "lat": "-27.89033", "long": "153.31309"}, {"city": "Toormina", "lat": "-30.35384", "long": "153.08843"}, {"city": "Glenmore Park", "lat": "-33.79068", "long": "150.6693"}, {"city": "Southbank", "lat": "-37.8228", "long": "144.96434"}, {"city": "St Kilda East", "lat": "-37.86594", "long": "145.00018"}, {"city": "Docklands", "lat": "-37.8149", "long": "144.95052"}, {"city": "Melton West", "lat": "-37.67852", "long": "144.56883"}, {"city": "Kurunjang", "lat": "-37.67587", "long": "144.5969"}, {"city": "Ashwood", "lat": "-37.86659", "long": "145.10553"}, {"city": "Glen Iris", "lat": "-37.85995", "long": "145.05489"}, {"city": "Elsternwick", "lat": "-37.88441", "long": "145.00434"}, {"city": "Elwood", "lat": "-37.88214", "long": "144.98215"}, {"city": "Burwood", "lat": "-37.84978", "long": "145.11901"}, {"city": "Box Hill South", "lat": "-37.83236", "long": "145.12098"}, {"city": "Blackburn", "lat": "-37.81901", "long": "145.15326"}, {"city": "Canterbury", "lat": "-37.8247", "long": "145.08476"}, {"city": "Hawthorn East", "lat": "-37.82484", "long": "145.0464"}, {"city": "Kew East", "lat": "-37.79758", "long": "145.05378"}, {"city": "Balwyn North", "lat": "-37.79086", "long": "145.09386"}, {"city": "Mont Albert North", "lat": "-37.80043", "long": "145.10828"}, {"city": "Box Hill North", "lat": "-37.80266", "long": "145.12656"}, {"city": "Blackburn North", "lat": "-37.80931", "long": "145.1518"}, {"city": "Blackburn South", "lat": "-37.83975", "long": "145.15549"}, {"city": "Chadstone", "lat": "-37.88766", "long": "145.09519"}, {"city": "Malvern East", "lat": "-37.87397", "long": "145.04253"}, {"city": "Oakleigh South", "lat": "-37.92416", "long": "145.09146"}, {"city": "Caulfield South", "lat": "-37.89562", "long": "145.02597"}, {"city": "Brighton East", "lat": "-37.90232", "long": "145.01734"}, {"city": "Black Rock", "lat": "-37.97357", "long": "145.01636"}, {"city": "Aspendale Gardens", "lat": "-38.02277", "long": "145.11798"}, {"city": "Booval", "lat": "-27.61328", "long": "152.78944"}, {"city": "Brassall", "lat": "-27.59753", "long": "152.74755"}, {"city": "Raceview", "lat": "-27.63472", "long": "152.77519"}, {"city": "Flinders View", "lat": "-27.65046", "long": "152.77451"}, {"city": "Redbank Plains", "lat": "-27.64613", "long": "152.85965"}, {"city": "Collingwood Park", "lat": "-27.61282", "long": "152.86008"}, {"city": "Clontarf", "lat": "-27.25341", "long": "153.07835"}, {"city": "Ballarat Central", "lat": "-37.56206", "long": "143.85082"}, {"city": "St Albans", "lat": "-37.74496", "long": "144.80049"}, {"city": "Eleebana", "lat": "-32.9896", "long": "151.63642"}, {"city": "Summer Hill", "lat": "-33.89146", "long": "151.13825"}, {"city": "Altona North", "lat": "-37.83487", "long": "144.84735"}, {"city": "Balcatta", "lat": "-31.87501", "long": "115.82839"}, {"city": "Belmont", "lat": "-31.9435", "long": "115.9255"}, {"city": "Bateau Bay", "lat": "-33.38334", "long": "151.46671"}, {"city": "East Perth", "lat": "-31.95872", "long": "115.87109"}, {"city": "Doveton", "lat": "-37.99346", "long": "145.23891"}, {"city": "Endeavour Hills", "lat": "-37.97695", "long": "145.25866"}, {"city": "Bossley Park", "lat": "-33.86184", "long": "150.8841"}, {"city": "Kellyville", "lat": "-33.71028", "long": "150.95095"}, {"city": "Tapping", "lat": "-31.71947", "long": "115.79559"}, {"city": "Taylors Lakes", "lat": "-37.69863", "long": "144.78631"}, {"city": "Cherrybrook", "lat": "-33.72197", "long": "151.04607"}, {"city": "Woodvale", "lat": "-31.78928", "long": "115.79676"}, {"city": "Roxburgh Park", "lat": "-37.62581", "long": "144.92555"}, {"city": "Prestons", "lat": "-33.94185", "long": "150.8717"}, {"city": "Beeliar", "lat": "-32.13339", "long": "115.80637"}, {"city": "Lynbrook", "lat": "-38.05588", "long": "145.25615"}, {"city": "Wyndham Vale", "lat": "-37.89138", "long": "144.62368"}, {"city": "Ballajura", "lat": "-31.84062", "long": "115.89549"}, {"city": "Willetton", "lat": "-32.05251", "long": "115.88782"}, {"city": "Carramar", "lat": "-31.69023", "long": "115.77159"}, {"city": "Alexander Heights", "lat": "-31.82758", "long": "115.86501"}, {"city": "Delahey", "lat": "-37.7198", "long": "144.77732"}, {"city": "Wilson", "lat": "-32.02058", "long": "115.91181"}, {"city": "Butler", "lat": "-31.64298", "long": "115.70431"}, {"city": "Darch", "lat": "-31.81255", "long": "115.8458"}, {"city": "Innaloo", "lat": "-31.89272", "long": "115.79508"}, {"city": "Booragoon", "lat": "-32.03945", "long": "115.83369"}, {"city": "Seville Grove", "lat": "-32.13645", "long": "115.98905"}, {"city": "Murrumba Downs", "lat": "-27.26733", "long": "153.01053"}, {"city": "Cabramatta", "lat": "-33.89743", "long": "150.93446"}, {"city": "Campsie", "lat": "-33.9125", "long": "151.10279"}, {"city": "Casula", "lat": "-33.95222", "long": "150.89949"}, {"city": "Knoxfield", "lat": "-37.88978", "long": "145.24962"}, {"city": "Little Mountain", "lat": "-26.78436", "long": "153.09218"}, {"city": "Glendenning", "lat": "-33.7483", "long": "150.85411"}, {"city": "Greystanes", "lat": "-33.82346", "long": "150.94607"}, {"city": "Padbury", "lat": "-31.80645", "long": "115.7688"}, {"city": "East Victoria Park", "lat": "-31.98894", "long": "115.90388"}, {"city": "Palmyra", "lat": "-32.04502", "long": "115.78589"}, {"city": "Yagoona", "lat": "-33.9049", "long": "151.01996"}, {"city": "Bell Park", "lat": "-38.10793", "long": "144.33839"}, {"city": "Golden Square", "lat": "-36.77265", "long": "144.25271"}, {"city": "Annerley", "lat": "-27.51228", "long": "153.03248"}, {"city": "Highton", "lat": "-38.17058", "long": "144.3114"}, {"city": "Dulwich Hill", "lat": "-33.9041", "long": "151.13945"}, {"city": "Viewbank", "lat": "-37.73991", "long": "145.09323"}, {"city": "Chirnside Park", "lat": "-37.7386", "long": "145.31431"}, {"city": "Meadow Heights", "lat": "-37.65117", "long": "144.91855"}, {"city": "Westminster", "lat": "-31.86744", "long": "115.83919"}, {"city": "Paralowie", "lat": "-34.75705", "long": "138.60819"}, {"city": "Bibra Lake", "lat": "-32.09764", "long": "115.81921"}, {"city": "Dianella", "lat": "-31.88822", "long": "115.87186"}, {"city": "Duncraig", "lat": "-31.83291", "long": "115.7759"},